name,address,rankingPosition,rating,description,numberOfReviews,priceLevel,priceRange,latitude,longitude
The Frog at Bercy Village,"25 Cour Saint Emilion, 75012 Paris France",19,4.5,"THE FROG AT BERCY VILLAGE is situated in an historic Parisian wine chai. It has open beams, limestone walls and a split-level interior, with two charming terraces. The magnificent English custom-designed and manufactured microbrewery is a main feature in this pub & produces 10,000 pints of our six original craft beers each week.",2292,$$ - $$$,$11 - $17,48.8329642,2.3862318
Assanabel Saint-Germain,"38 rue Jacob, 75006 Paris France",15,4.5,"Assanabel Paris, les restaurants où notre spécialité est la délicieuse cuisine libanaise créée avec ingéniosité et passion inspirée des plus belles saveurs du Liban. Depuis 1988, nous prenons soin d’innover en fonction de vos goûts tout en préservant tradition et qualité. Venez donc découvrir la cuisine du pays du cèdre chez le meilleur restaurant libanais à Paris !",232,$$ - $$$,$20 - $90,48.8556729,2.3336172
114 Faubourg,"114 rue du Faubourg Saint Honore, 75008 Paris France",35,4.5,"La brasserie étoilée Récompensé par une étoile au guide Michelin, le 114 Faubourg est devenu la brasserie chic du Tout Paris. L’escalier en fer forgé participe à l’ambiance élégante et chaleureuse du lieu tandis que la cuisine ouverte rend l’espace si convivial. C’est dans un esprit de famille que l'équipe du 114 Faubourg accueille ses convives. En coulisses, la brigade supervisée par Eric Frechon vous régale.",1953,$$$$,,48.8718416,2.3144851
Nell'Arte,"58 rue Marguerite de Rochechouart, 75009 Paris France",14,5,,350,$$ - $$$,$12 - $20,48.8805655,2.3464647
Le Comptoir Boutary,"32 Rue Catherine De La Rochefoucauld, 75009 Paris France",12,5,Cuisine de marché et Vins de caractère,269,$$ - $$$,$20 - $50,48.8791711,2.3348244
Frog XVI,"110 B avenue Kleber, 75116 Paris France",18,4.5,"FROG XVI is situated in the 16th arrondissement, one of the capital's most cosmopolitan quarters, popular with tourists and Parisians alike. FROG XVI is stylishly decorated whilst conserving the warmth and conviviality of an English pub. We're proud to boast a magnificent microbrewery and a bar/restaurant on two levels.",2170,$$ - $$$,$11 - $17,48.8712924,2.2932078
Alix et Mika - Tartares sur mesure,"37 rue Lamarck, 75018 Paris France",10,5,,797,$$ - $$$,$15 - $35,48.8892927,2.3416023
Pastamore,"37 Boulevard du Montparnasse, 75006 Paris France",23,5,,1946,$$ - $$$,$17 - $25,48.8449624,2.3212232
Pizzeria Arrivederci,"47 rue Gay Lussac, 75005 Paris France",2,5,Smart pizza place in 5arrondisement. Here you can taste real Italian pizza with all fresh productos... Just taste it and you travel to Italy!!!,2233,$$ - $$$,$9 - $22,48.8417454,2.3434754
B.Better,"26 rue Beautreillis, 75004 Paris France",20,5,"B.BETTER is a 100% Vegetal and 100% Gourmet restaurant. A complete offer, a top location and reasonable prices make B.BETTER, a unique place to rediscover street-food in a vegetal version in the heart of the capital. The recipes are inspired by the seasons and the ingredients we love. B.BETTER products are homemade, made to order and sourced as much as possible from local agriculture. A new concept, which we hope will make it possible to democratize the vegetable diet on a daily basis, while reducing our environmental impact. Strive for the best and respect our planet without forgetting to have fun! ""Nobody's Perfect, Be Better."" Erika & Lucas (founders of B.BETTER)",101,$$ - $$$,$15 - $30,48.8535693,2.3644401
Bistro Chez Pradel,"3 rue du Pasteur Wagner, 75011 Paris France",27,5,,184,$$ - $$$,$12 - $40,48.8559611,2.3690105
Il Etait Un Square,"54 rue Corvisart, 75013 Paris France",6,5,Notre restaurant est spécialisé en burgers et tartares. La particularité de nos burgers : la crème de fromage. Nos burgers et tartares sont réalisés avec une viande bovine (Aubrac rustique) issue d'élevages traditionnels français. Nos buns boulangers sont bio. 21h30 (derniere reservation),4216,$$ - $$$,,48.8310469,2.3480114
Assanabel Paris,"6 rue Pierre Chausson, 75010 Paris France",8,5,"Assanabel Paris, les restaurants où notre spécialité est la délicieuse cuisine libanaise créée avec ingéniosité et passion inspirée des plus belles saveurs du Liban. Depuis 1988, nous prenons soin d’innover en fonction de vos goûts tout en préservant tradition et qualité. Venez donc découvrir la cuisine du pays du cèdre chez le meilleur restaurant libanais à Paris !",995,$$ - $$$,$30 - $60,48.8705267,2.3604154
Boutary,"25 rue Mazarine, 75006 Paris France",13,5,"Boutary is a chic and trendy ""boutique bistro"" with traditional French roots but a modern and affordable approach to gastronomic cuisine. High-end festive delicacies prepared by an expert chef and a short but exceptional selection of wines, champagne and vodkas are offered at reasonable prices. Caviar is one of the house's specialities: although not compulsory, we suggest you try a sampling or a small caviar dish to make your experience at Boutary truly unique.",1665,$$$$,$50 - $120,48.8548708,2.3379816
Au P'tit Curieux,"27 rue de Sambre Et Meuse, 75010 Paris France",29,5,"We offer simple, yet sophisticated and elegant fare, created from the freshest products, to delight the eyes as well as the discriminating palate. Please note that our restaurant is not suitable for children under 8 years old.",779,$$ - $$$,$40 - $70,48.8746829,2.3727046
New Jawad Longchamp,"30 rue de Longchamp, 75116 Paris France",33,5,,3489,$$ - $$$,,48.865057,2.2900826
Da Giuseppe,"76 rue du Faubourg Poissonniere, 75010 Paris France",3,5,"Fresh and authentic Italian products. Long-lasting artisanal pizza dough made in our local using a balanced mixture of Italian flours, homemade natural sourdough, Himalayan pink salt, ensuring lightness, aromas and digestibility. Fruits and vegetables from the market. DOP “Denominazione di Origine Protetta” cheeses and cured meats cut to order preserving taste and freshness.",811,$,$5 - $13,48.8763821,2.3485977
Pizzamore Paris,"121 Avenue Du Maine, 75014 Paris France",25,5,"Bonjour! À la recherche d'une authentique expérience italienne au cœur de Paris? Ne cherchez plus, rendez-vous chez Pizzamore, situé dans le charmant quartier de Montparnasse : 14e arrondissement. Notre pizzeria vous offre une expérience gastronomique 100% italienne avec des pâtes fraîches, des pizzas gourmet et des desserts traditionnels. Que vous souhaitiez dîner sur place, vous faire livrer ou emporter, notre emplacement privilégié près de la station de Montparnasse facilite la dégustation des saveurs italiennes tout en séjournant à Paris. Nous avons hâte de vous accueillir.",755,$$ - $$$,$17 - $78,48.8355113,2.3240275
Chez Nicos,"44 rue Mouffetard, 75005 Paris France",1,4.5,"Chez Nicos est une crêperie, avec crêpes sucrées dessert,galette sarrasin pour salé et Paninis à emporter. Option VEGAN friendly",826,$,$4 - $10,48.8435778,2.3494137
Chefs a Table,"15 rue Trousseau, 75011 Paris France",36,5,"Restaurant semi-gastronomique où il fait bon s’arrêter pour déguster une cuisine variée, originale et bien maîtrisée. Les produits frais sont à l’honneur dans notre établissement. L'équipe Chefs à Table vous attends pour partager un agréable moment.",181,$$ - $$$,$25 - $65,48.8519039,2.3788058
Pizza Du Chef,"11 rue Georges Marie, 92130 Issy-les-Moulineaux France",1,4.5,,713,$,,48.8281431,2.2837459
Miura,"15, rue de l'Arc de Triomphe, 75017 Paris France",24,5,,160,$$$$,$59 - $85,48.8770819,2.2935069
Cavale,"40 Rue des Petites Ecuries, 75010 Paris France",11,5,,182,$$ - $$$,,48.8738996,2.3502738
Mache,"61 rue de Chabrol, 75010 Paris France",53,5,"Mâche, restaurant créé par Vincent Geraud comme un éternel mouvement basé sur la convivialité et la prise en compte de notre planète ; un lieu vivant où la cuisine du chef Michaël Gamet s'inspire des saisons et de ses nombreux voyages... Une créativité centrée sur l'accord, l'assaisonnement et les condiments, vision partagée par une équipe jeune et passionnée. Des goûts francs et osés, parfois surprenants, parfois réconfortants, mais toujours superbement accompagnés par une sélection de vins nature par Mathias Fouré, responsable en salle, amoureux du métier et des bonnes quilles",116,$$$$,$60 - $100,48.8770974,2.3510171
Gosier,"27 rue Rodier, 75009 Paris France",48,5,"Welcome to Gosier! A friendly restaurant proposing a delicate seasonal cooking. Enjoy the surprise of our audacious pairings of our small plates to share, allowing you to vary your gustatory pleasures. No limit for treats, the menu is renewed every two weeks, for always more delights! The wine menu is as attractive. You will find untypical wines, or more classical ones, organic, bio-dynamic, and also natural wines, all coming from French regions, and carefully selected. Come and discover our coups de coeur of the moment!",217,$$ - $$$,,48.8791915,2.3431041
Chez Arnaud,"16 rue Eugene Jumin, 75019 Paris France",45,4.5,,1633,$,$18 - $25,48.8873296,2.3925129
Azur Cafe,"63 rue de Ponthieu, 75008 Paris France",67,5,"Café restaurant en plein coeur du 8ème arrondissement, à deux pas des champs Elysée proposant des brunch healthy toute la journée, ainsi que des plats saint, colorés et savoureux.",242,$$ - $$$,,48.8722649,2.304458
L'Atelier Ramey,"23 rue Ramey, 75018 Paris France",40,4.5,,696,$$ - $$$,$18 - $42,48.8882828,2.3467378
Il Grano,"212 B boulevard Pereire, 75017 Paris France",50,4.5,"Family-friendly pizzeria-trattoria with delivery and take-out services open 7 days a week available at www.restaurantilgrano.com. Specialties of fresh artisanal pasta and Roman pizzas (pinsa romana which is the ancestor of Neapolitan pizza). 100% home cooking including bread and desserts. The restaurant offers a wide view of the open kitchen, possibility of eating on the terrace.",1718,$$ - $$$,$15 - $35,48.8877483,2.3092214
Poni,"24 rue Saint Lazare, 75009 Paris France",44,5,"Dans notre établissement, vous pouvez déguster de délicieux repas sans avoir à attendre longtemps votre repas. Nous nous réjouissons de votre visite. Nos clients apprécient notre bistrot pour la fraîcheur et la qualité de ses plats. Testez par vous-même et laissez-vous convaincre. Notre offre vous inspirera. Vous pouvez vous installer au soleil dans notre sublime espace et profiter de l’été avec vos amis. Notre bistrot climatisé vous accueille pour passer un moment agréable peu importe la température extérieure. Un excellent bistrot pour déjeuner Vous serez ravis par nos recettes françaises et variées préparées par nos cuisiniers à votre attention. Notre excellente cuisine s’accompagne d’une vaste gamme de plats et de boissons délicieuses. Savourez les excellents plats du terroir, les plats régionaux variés ou les excellentes salades, créés avec passion par nos chefs de cuisine. Notre tiramisu et notre confiture délicate vous séduiront pour le goûter. Passez nous voir pour un petit-d",563,$$ - $$$,$12 - $45,48.8767922,2.3369415
JJ Beaumarchais,"92 boulevard Beaumarchais, 75011 Paris France",62,5,,288,$$ - $$$,$18 - $50,48.8598784,2.3677677
Bus Toque,"67 Av. des Champs-Elysees, 75008 Paris France",46,5,,900,$$$$,$65 - $105,48.8705852,2.3039742
Alliance,"5 rue de Poissy, 75005 Paris France",34,5,,546,$$$$,$75 - $245,48.8499322,2.3532734
Creperie du Landy,"3 rue du Landy, 92110 Clichy France",1,5,,234,$,$5 - $11,48.9057267,2.3069515
Verse Toujours,"3 Avenue Des Gobelins, 75005 Paris France",31,5,,316,$$ - $$$,$12 - $26,48.8384187,2.3510318
Orgueil,"6 rue Popincourt, 75011 Paris France",42,5,,653,$$$$,$20 - $50,48.8571065,2.3777048
Chez Cleopatre (Tacoos -Burger),"46 rue Condorcet, 75009 Paris France",58,5,,651,$,$6 - $25,48.8802674,2.3435463
Petit Boutary,"16 rue Jacquemont, 75017 Paris France",17,5,"Dans une rue calme des Batignolles, dans une atmosphère de bistro moderne, notre Chef Kazu vous accueille à sa ""table du Chef"". Laissez vous surprendre par ses menus du jour, renouvelés à chaque saison...",574,$$$$,$49 - $64,48.8878286,2.3224481
Terra Mia,"118 boulevard du Montparnasse, 75014 Paris France",37,5,Gastronomy Of The Naples Cuisine,627,$$ - $$$,$10 - $30,48.8414918,2.3305395
Milord,"12 rue Tolbiac, 75013 Paris France",47,5,,143,$$ - $$$,,48.829797,2.3750717
Le jardin du Kashmir,"60 rue Legendre, 75017 Paris France",85,4.5,,630,$$ - $$$,,48.8853359,2.3163735
Bistrot Kinzo,"13 rue Rougemont, 75009 Paris France",32,5,"French and Japanese fusion. Fresh products and a menu that evolves with the seasons. The owner Edward Uchiyama was the Head Chef at the Intercontinental hotel Marceau, worked for Joel Robuchon and at the Four Seasons George V hotel. Come and experience a Journey to Japan and France with our 6 course Tasting menu and wine paring.",245,$$$$,$18 - $49,48.8720126,2.3459034
Ristorante Garum,"64 rue Sedaine, 75011 Paris France",56,5,,160,$$ - $$$,,48.8580491,2.3773676
Le 27 Gourmand,"27 boulevard des Batignolles, 75008 Paris France",87,4.5,"Situé au coeur du quartier des Batignolles, à deux pas de la gare Saint-Lazare, de la place de Clichy ou encore du théâtre Hébertot et de l'Européen, depuis maintenant 23 ans, Valérie et Nicolas vous accueillent avec grand plaisir pour vous proposer une table d'exception. Nous mettons au centre de notre priorité votre satisfaction en vous proposant un cadre chic et moderne, ainsi qu'un service personnalisé. Vous dégusterez de la cuisine du Sud Ouest préparée avec des produits français d'excellente qualité tels que Magrets et Confit de Canard, Foie Gras de Canard, desserts Maison. Nous organisons tous vos évènements midi et soir.",323,$$ - $$$,$35 - $48,48.8826233,2.3239751
Frog & Underground,"176 rue Montmartre, 75002 Paris France",49,5,"Frog & Underground is based in the famous ""grands boulevards"" district. The pub, once the french beer factory, has kept its original feel with its exposed brick walls and factory style decoration... Try out our genuinely good burger and our great graft beer.",1156,$$ - $$$,$12 - $19,48.8710684,2.3430364
Les Apotres de Pigalle,"2 rue Germain Pilon, 75018 Paris France",26,5,"Eat, Drink, Share... That's Les Apôtres de Pigalle. Short Menu of dishes to share, made out of daily-cooked ingredients Selection of quality wines Vibrant atmosphere Roland, Thibault & Gautier are looking forward to receive you ;)",2676,$$ - $$$,$5 - $25,48.8830634,2.336385
Ya Bayte,"1 rue des Grands Degres, 75005 Paris France",70,5,"Street food libanais, plats frais préparés minute, pain maison, cuissons au charbon de bois, falafel, chawarma, burger",238,$,$7 - $20,48.85122,2.3500241
Signature Montmartre,"12 Rue des Trois Freres, 75018 Paris France",69,5,"French Asian fusion restaurant in Paris Montmartre, just next to the Sacre Coeur. Signature Montmartre Restaurant provides Asian traditional dishes and spices adapted with French gastronomy. Signature Restaurant's chefs cooks quality and healthy products to give you the best of both worlds!",501,$$ - $$$,$38 - $78,48.8844162,2.3412851
Le Faham by Kelly Rangama,"108 rue Cardinet, 75017 Paris France",77,5,"Cuisine traditionnelle gastronomique aux influences ultra-marine, inspirée par la Réunion et les Dom-Tom, la Cheffe Kelly Rangama s'imprègne des plats traditionnels de son enfance à la Réunion et de ses voyages sur les 9 départements d'outre-mer durant son émission culinaire ""voyages et délices"".",152,$$$$,$50 - $65,48.8856271,2.3117203
Les Epiciers,"33 rue de Montmorency, 75003 Paris France",81,5,"A typically french wine bar, ""LES EPICIERS"" is the place for tasting cheese and ham platters served with tasty wines selected by the owners themselves. The atmosphère is very cosy and you will rapidly feel like at home As the shop also works as a french deli it is possible to buy and take away typical french products.",295,$$ - $$$,$6 - $25,48.8633289,2.354049
Zincou Vins & Tapas,"50 rue Blanche, 75009 Paris France",80,5,"Zincou is both a wine and tapas restaurant. The chef offers a gourmet French cuisine to share as tapas. We select fresh and local products as much as possible in order to put forward the ""French terroir"". About the cellar, there is a selection of more than 40 wines served by the glass. We propose different types of wine such as organic, biodynamic, or nature ones.",110,$$ - $$$,$10 - $40,48.8801319,2.331529
Bistrot Beyrouth,"103 Rue de Charonne, 75011 Paris France",60,4.5,,270,$$ - $$$,$5 - $44,48.8545826,2.384556
Les Barioles de Maud Paris 9,"12 rue Buffault, 75009 Paris France",59,5,"Le seul endroit à Paris pour découvrir et déguster des bariolés !! La cuisine de Maud est 100% maison avec des produits frais et de saison, les bariolés sont des délicieux petits plats ou desserts colorés au naturel pour donner envie d'en croquer :) Vous pourrez déguster des bariolés lors d'un brunch en semaine ou un brunch le week-end, d'un déjeuner (bowl déjeuner), d'un dîner ou même d'un after-work ! En ce moment, le bariolé ""Pomodoro"" vous attend : tomates rôties, mozzarella, pesto de basilic et croûtons maison, dans sa jolie coque rouge croustillante... L'équipe de Maud vous attend tous les jours avec le sourire :)",1203,$$ - $$$,$10 - $30,48.8755706,2.3419536
Passione,"123 avenue Parmentier, 75011 Paris France",57,5,,176,$$$$,,48.8687821,2.3717738
Pizza Presto,"avenue Paul Vaillant Couturier, 93330 Neuilly-sur-Marne France",1,5,,561,$$ - $$$,$10 - $30,48.865716,2.5640689
Domenico's,"8 rue Saint Lazare, 75009 Paris France",39,5,"Niché en plein cœur du 9eme arrondissement de Paris, à mi-chemin entre Pigalle et la Gare Saint Lazare, Domenico's propose des recettes traditionnelles siciliennes et du sud de l'Italie remises au goût du jour.",955,$$ - $$$,$20 - $29,48.8769483,2.3382922
Akira Back Paris,"33 avenue George V, 75008 Paris France",83,5,,185,$$$$,,48.8690963,2.3008106
Madito,"12 rue de Candie, 75011 Paris France",74,5,,351,$$ - $$$,,48.8512719,2.3799601
Bar Italia Brasserie,"22 rue Moncey, 75009 Paris France",99,4.5,,1270,$$ - $$$,$16 - $50,48.8799549,2.3292922
Bao & ME,"89 rue du Faubourg Poissonniere, 75009 Paris France",38,5,,867,$,$11 - $25,48.8767672,2.3486461
AlKaram,"15 rue Ferdinand Fabre, 75015 Paris France",61,5,,869,$$ - $$$,$17 - $32,48.8384538,2.297076
La Barriere de Clichy,"1 rue de Paris, 92110 Clichy France",2,5,,468,$$$$,$25 - $60,48.89637,2.308251
Le Bistrot d'Yves,"33 rue Cardinet, 75017 Paris France",97,5,,718,$$ - $$$,$20 - $40,48.8821046,2.3039341
Publisher - Restaurant,"33 Rue de Constantinople, 75008 Paris France",101,4.5,"Gastro Pub, Draught beers. At Publisher, you can enjoy our own beer, directly brewed in Paris, discover our huge shelf of spirits from all around the world, and eat very fine food. Come and discover our varied menu and a choice of delicious daily dishes! Our staff will welcome you as if you were at home and suggest you atypical dishes from the Publisher's kitchen. Let's enjoy fresh cocktails, french wines, and abnormal products",324,$$ - $$$,$24 - $250,48.8805485,2.3184278
Le Vent d'Armor,"25 quai de la Tournelle, 75005 Paris France",95,5,,437,$$ - $$$,$30 - $70,48.8501155,2.3541476
Le Maxan Restaurant,"3 rue Quentin Bauchart, 75008 Paris France",75,4.5,,326,$$$$,$38 - $60,48.8689554,2.2994002
Papa Mia,"50 rue Louis Rouquier, 92300 Levallois-Perret France",1,5,,280,$$ - $$$,$12 - $25,48.890649,2.2866251
Cote Sushi Enghien-les-Bains,"14 rue de Mora, 95880 Enghien Les Bains France",1,5,"Explorez une fusion exceptionnelle de saveurs japonaises et péruviennes dans notre restaurant Nikkei, Côté Sushi Enghien-les-Bains . Plongez dans une expérience culinaire élégante, alliant sushis frais et créations audacieuses comme le ceviche Nikkei.
Que ce soit pour un déjeuner rapide, une célébration spéciale ou une expérience à emporter, notre équipe dévouée vous promet des moments uniques. Profitez de nos options variées : venez manger sur place, commandez à emporter ou faites-vous livrer via notre site.",109,$$ - $$$,,48.9701166,2.3077169
Chez Pitou,"28 rue Tholoze, 75018 Paris France",109,5,"home-made cooking, worked with care, fresh products selected for their seasonality and a selection of wines at reasonable price in agreement with the dishes. A warm and friendly place, where to please yourself is the most important. Cooked dishes with passion and a friendly atmosphere to awaken your taste buds. See you soon in Montmartre !",270,$$ - $$$,$10 - $25,48.8870725,2.3360524
Perception,"53 rue Blanche, 75009 Paris France",52,5,,184,$$$$,,48.8811772,2.3314693
La MiN,"45 Rue de Montreuil, 75011 Paris France",117,5,"Place to eat, drink and speak",671,$$ - $$$,$20 - $36,48.8505164,2.388329
Jimmy 2 Fois,"15 rue Letort, 75018 Paris France",84,5,,490,$$ - $$$,$9 - $17,48.8943511,2.3430521
MoSuke,"11 rue Raymond Losserand, 75014 Paris France",110,5,,349,$$$$,,48.8362707,2.3224104
La Maison du Boulevard,"40 Boulevard de l'Hopital, 75005 Paris France",54,5,,90,$$ - $$$,$15 - $25,48.840178,2.3616384
Le Confidentiel,"6 rue Robert Estienne, 75008 Paris France",68,4.5,"Upscale French restaurant HALAL kind located in the prestigious golden triangle of Paris, fields axis Elysées, Avenue Montaigne, François 1st Street, The Confidential welcomes you in a cozy lounge setting for a romantic meal, a group, or for a meal of business leader Rudy Suzan will satisfy you thanks to its past experience in the hotel Costes, Durand Smith, the Villa ....",1811,$$$$,$20 - $40,48.8686746,2.3050081
La Veraison,"64 rue de la Croix Nivert, 75015 Paris France",114,4.5,,726,$$ - $$$,$45 - $60,48.8449765,2.2972289
Marche Ou Crepe,"18 rue des Haies, 75020 Paris France",76,5,,370,$,$9 - $15,48.8526199,2.4004455
Granite par Tom Meyer,"6 rue Bailleul, 75001 Paris France",82,5,"Granite est le nouvel établissement du Groupe Eclore par le chef Tom Meyer, associé à Stéphane Manigold. Lieu vivant faisant la part belle aux matériaux naturels et organiques.",155,$$$$,,48.8609753,2.3419779
Il Tronchetto,"22 rue de Lourmel, 75015 Paris France",63,5,,735,$$ - $$$,,48.8494498,2.2911526
AMORE E FANTASIA,"134 rue Louis Rouquier, 92300 Levallois-Perret France",2,5,,282,$$ - $$$,$15 - $35,48.8937042,2.2944411
Origines,"6 rue de Ponthieu, 75008 Paris France",94,5,"After 5 years and one Michelin Star at Les Climats, Julien Boscus opened his own restaurant. Based on sourcing of the best french products his cuisine is a real experience of the authentic french cuisine. Wine list with over 500 references awarded with 2 Glasses « Best of Award of Excellence » by Wine Spectator",300,$$$$,$100 - $200,48.8702009,2.311241
Selva,"22 Rue Du Sommerard, 75005 Paris France",106,5,,378,$$ - $$$,$20 - $50,48.8503232,2.3447986
Restaurant L'INITIAL,"9 rue de Bievre, 75005 Paris France",88,5,Opening Times Lunch | Wednesday to Saturday 12.00pm to 1.30pm Dinner | Tuesday to Saturday 7.00pm to 9.00pm,520,$$$$,$48 - $98,48.8506901,2.3504188
Maison Cluny,"3 rue de Cluny, 75005 Paris France",107,5,"Nouvelle adresse bistrot chic dans le 5ème. Carte de produits frais, de saison et renouvelée régulièrement. Après 10 ans au Restaurant Le Cornichon (meilleur bistrot parisien 2013), Franck Bellanger et Matthieu Nadjar reviennent avec une nouvelle adresse encore plus conviviale dans un cadre exceptionnel entre la Sorbonne et le musée de Cluny.",248,$$$$,$35 - $70,48.8505807,2.3448259
Restaurant Mumi,"14 rue Sauval, 75001 Paris France",90,5,,423,$$$$,$33 - $200,48.8620282,2.3425847
May Bay,"33 rue des Laitieres, 94300 Vincennes France",1,5,"Situé à Vincennes, au pied du métro Saint Mandé (L1), Mây Bay - Restaurant vietnamien végan végétarien- vous propose de savoureux plats repris ou réinventés dans la tradition culinaire Asiatique. Le restaurant inscrit quotidiennement à sa carte quatre entrées, plats et fabriqués sur place à base d'ingrédients frais et durement sélectionnés. Nous ajoutons à chaque service une entrée, un plat et un dessert du jour associant ainsi découverte à l’offre de fond soigneusement élaborée Nos plats sont également disponibles en livraison !",253,$$ - $$$,$4 - $30,48.8474374,2.4228364
Joyti Restaurant,"148, Rue de Vaugirard, 75015 Paris France",105,5,"Traditional indian home made kitchen since 1994. One of Best indian restaurant in Paris specialy for tandoori, cheese nans, butter chicken and all traditional indian recipes. Our dream is to serve best traditional indian food and give the taste of indian culture and love to parisians, Apart from that Our cook is experienced for traditional indian dishes. so we can ensure you the best taste of indian rasoi because it is our mission. We are very special for Tandoori. We are established & serving Indian cuisine in heart of Paris from last 25 years. Our Joyti Restaurant is very close to major tourist attractions like Montparnasse Tower, Eiffel Tower, Louvre Museum. The restaurant is right on Main Street where parking for tourist buses is easy. Our beautiful restaurant is having 65+ seats to provide quick table service (not the buffet) to the customers so they can continue their meals without waiting.",586,$$ - $$$,$20 - $40,48.8437699,2.3150925
le reciproque,"14 rue Ferdinand Flocon, 75018 Paris France",111,5,,373,$$ - $$$,$21 - $47,48.8916389,2.3461087
Pianovins,"46 rue Trousseau, 75011 Paris France",92,5,,214,$$$$,$30 - $64,48.8523936,2.3791684
XV Burger,"179 rue de Vaugirard, 75015 Paris France",100,5,"Let your palate savor real fresh products, this is what this establishment offers you, a guarantee of seriousness and quality that you certainly cannot deny, to test! THE PRESENTATION - Truly highly sought after and elaborate, the presentation of the plates of this restaurant will whet your appetite in seconds, get ready to savor works of art. WELCOME - Warm and very smiling, the welcome offered by the XV Burger restaurant will instantly put you at ease, a real pleasure to share with family or friends, not to be missed!",188,$,,48.8430748,2.3133022
Restaurant Biscotte,"22 rue Desnouettes, 75015 Paris France",125,5,"Attention la fourchette prends des commissions sur les réservations, n'hésitez pas à passer en direct avec vos restaurants.",245,$$ - $$$,$45 - $65,48.8361336,2.2911849
La Crete,"85 Rue Mouffetard, 75005 Paris France",119,4.5,,1553,$$ - $$$,,48.8418239,2.3497538
Cook' n Saj,"5 rue Bernard Palissy, 75006 Paris France",115,5,Mediterranean fusion restaurant serving soulful food to unique people. Come and experience our way of hosting.,747,$,$5 - $25,48.8531509,2.3319721
India StreEAT,"105 Rue Monge, 75005 Paris France",118,5,,266,$$ - $$$,$14 - $20,48.8404089,2.3518269
Can Alegria Paris,"73 rue Jean Baptiste Pigalle, 75009 Paris France",66,5,"Ancien cabaret où chantait Piaf à ses débuts, le restaurant Can Alegria poursuit l’histoire. Restaurant & bar, l’adresse chante la cuisine méditerranéenne et exotique, sert de bons vins et propose des cocktails originaux. Toujours dans la joie de vivre. Niché au cœur de Pigalle, ce lieu de partage a été pensé par la décoratrice Élodie Ricord. Le cadre chaleureux, combinant matières naturelles et couleur bleue rappelle la méditerranée et permet un voyage inédit à Paris. Le chef Marc-Antoine Colonna propose des plats qui ressemblent au lieu : une cuisine créative, avec une influence espagnole, qui change au rythme des saisons.",1290,$$ - $$$,$20 - $35,48.8818216,2.3368647
La Scene Par Stephanie Le Quellec,"32 avenue Matignon, 75008 Paris France",108,4.5,,292,$$$$,,48.8720354,2.314504
Tadam Paris,"14 rue du Jura, 75013 Paris France",143,5,"
          ",226,$$ - $$$,$25 - $50,48.8370478,2.3560076
Wine Therapy Bar a Vins,"35, Rue de Montholon, 75009 Paris France",91,5,,361,$$ - $$$,$12 - $20,48.8765193,2.3449372
Contraste,"18 rue d Anjou, 75008 Paris France",103,5,"Le restaurant Contraste se situe à Paris 8e, idéalement implanté entre la Concorde et la Madeleine. Les Chefs Kévin de Porre et Erwan Ledru sont à la tête de ce restaurant étoilé Maîtrise des gestes, précision des assaisonnements et des cuissons : une alchimie des saveurs émane des créations de ces jeunes talents. Ils dressent des assiettes lisibles dans le respect des saisons et des territoires et ont réussi à poser une certaine énergie au déjeuner et un frisson d’intimité au dîner. Contraste est une table ouverte où salle, cave à vins et cuisine se mêlent dans une moderne singularité.",245,$$$$,$55 - $150,48.8704774,2.3212791
Sacree fleur,"50 Rue de Clignancourt, 75018 Paris France",151,4.5,"Sacree fleur (ex Marguerite) is a traditional french cuisine restaurant, located just closed to Sacre Coeur in Montmartre. Speciality : the beef
Everything is homemade. We use fresh products",3729,$$ - $$$,$20 - $40,48.8875954,2.3479048
L'Arcane,"52 rue Lamarck, 75018 Paris France",137,5,,392,$$$$,,48.8893303,2.3420067
Johana's FISH & CHIPS,"30 rue Saint Sauveur, 75002 Paris France",135,4.5,,362,$,,48.8662801,2.3475925
Le Perraudin,"157 rue Saint Jacques, 75005 Paris France",89,5,"The Perraudin restaurant is a typical french bistrot established since 1872 in the latin district, minutes from Sorbonne University and Luxembourg gardens. France, the owner, and her team welcome you in a friendly atmosphere and propose you a traditional french cuisine, homemade with fresh products. Fixed priced menus starting 18,50€ at lunch time and 22€ for dinner. A la carte also available. Fairly priced wine list straight from producers.",341,$$ - $$$,$18 - $32,48.8463488,2.3432658
Le 217 Brasserie Restaurant,"217 Avenue Daumesnil, 75012 Paris France",113,4.5,,576,$,$12 - $32,48.8385129,2.3990952
Desvouges,"6 rue des Fosses Saint Marcel, 75005 Paris France",126,5,,361,$$ - $$$,$20 - $32,48.8391336,2.3560625
Midi 12,"12 rue la Fayette, 75009 Paris France",131,4.5,,1125,$,$8 - $25,48.8733626,2.3346942
Marclee,"10 Rue Saulnier, 75009 Paris France",153,4.5,,569,$$ - $$$,$69 ,48.8749507,2.3444377
Restaurant H,"13 rue Jean Beausire, 75004 Paris France",121,5,,538,$$$$,$35 - $70,48.8544888,2.3679571
La Reserve,"44 rue Leon Frot, 75011 Paris France",128,4.5,"La Réserve des Initiés, c'est le repère des fines-gueules. Dans les assiettes, petites et grandes, des produits tout frais cuisinés sur place et en fonction des saisons, qu'on accompagne d'une sélection de vins pas piquée des hannetons.",302,$$ - $$$,$15 - $40,48.8557184,2.3866038
Oinari,"34 Rue la Bruyere, 75009 Paris France",122,5,"OINARI is an authentic Japanese restaurant, where you can discover the taste of Japan in Paris. We present to you an increasingly wide range of delicious Japanese dishes that are still rare in Paris. Our goal is to be a place of relaxation for all, connecting Japan and France.

----Our specialty, INARIZUSHI----
INARIZUSHI, the rich taste of vinegared rice wrapped in fried tofu, has been popular throughout Japan for hundreds of years.
  OINARI sources its fried tofu directly from Kyoto (OINARI uses fried tofu from Kyoto.).

We offer uniquely styled INARI sushi with colorful toppings such as vegetables, fish and meat. Enjoy INARIZUSHI, which are very popular in America, Australia and other Asian countries.

----Rigorous selection by a sake sommelier-----
Please enjoy the marriage of delicious food and sake.
More than 80 types of sakes, the largest in Paris",159,$$ - $$$,$16 - $100,48.8795875,2.3336903
Le Petit Pont,"40 avenue Jean D Estienne D Orves, 94340 Joinville-le-Pont France",1,5,,969,$$ - $$$,,48.8230243,2.4705453
Himalaya Restaurant,"22 rue de la Gaite, 75014 Paris France",104,4,"Himalaya Restuarant Gaite in the heart of Paris traditional Indian Pakistani gastronomy. We have the authentic taste of spices and curry. Quality service of Indian and Pakistani cuisine since 1983 in Paris. We offer : - Delivery at home, office - Reservation event (Birthday, Wedding dinner, Business lunch, Meetings) - Home delivery (Paris 05, Paris 06, Paris 07, Paris 13, Paris 14, Paris 15)",407,$$ - $$$,$35 ,48.8394993,2.3233349
Gegeor,"1 rue Moncey, 75009 Paris France",93,5,"GEGEOR is a Wine Cellar and a Restaurant in the same time. Wine cellar : the primary profession of the establishment is to advise and sell wine. 250 references of wines and spirits, only wines of independent wine maker and around 50% of organic, biodynamic or natural wines. Restaurant: family dishes at most cooked on site, composed of ingredients from the ""terroir"". Here the cooking is made to put the wine in value.",267,$$ - $$$,$6 - $27,48.8800496,2.3311537
Le Florimond,"19 avenue de la Motte Picquet, 75007 Paris France",123,4.5,,1166,$$ - $$$,$1 ,48.8556914,2.3080031
L'Empreinte,"5 rue Mouton Duvernet, 75014 Paris France",124,4.5,"The EMPREINTE exists since October 2016, we have been on the Michelin guide for 4 years, thanks to our customers our restaurant has become a must in Paris 14th. The two partners Jean François (in the dining room) and Noel (chef in the kitchen) loved to cook only with fresh products, with recipes from our grandparents. We loved to preserve the taste and authenticity of French cooking. Long live the good cooking of our beautiful FRANCE. The pleasure of seeing you.",450,$$ - $$$,$29 - $49,48.831505,2.3291751
L'Atelier Saisonnier Paris 9,"58 rue la Fayette, 75009 Paris France",130,4.5,L'atelier saisonnier est le restaurant et bar spécialiste des planches charcuteries fromages à Paris avec des produits du terroir uniquement. Une carte des vins et bières artisanales (en pression) accompagnent nos planches Aussi réputé dans la capitale pour son Brunch à volonté ! Au programme un buffet 100% Maison avec que des produits cuisiné le matin sur place et de quoi réconforter vos soirées de la veille,851,$$ - $$$,$20 - $32,48.8753894,2.3424351
Frog & Rosbif,"116 rue Saint Denis, 75002 Paris France",146,4.5,"THE FROG & ROSBIF is just around the corner from the rue Montorgueil, the oldest market street in Paris. This is a beautiful English pub with a busy little brewery in the cellar. It is a popular & famous live sports venue.",660,$$ - $$$,$11 - $17,48.865489,2.3505126
Akabeko Restaurant,"40 rue de l Universite, 75007 Paris France",7,5,"Chef Yasuo Nanaumi vous invite pour une expérience culinaire inoubliable, dans un restaurant fusion français et japonais en plein cœur du 7e arrondissement de Paris. Composé de deux étages, le restaurant propose une ambiance chic, moderne et chaleureuse. Au rez-de-chaussé un long comptoir et au 1er une salle cosy pour vous accueillir.",75,$$$$,$69 - $139,48.8576151,2.328373
Frog Hop House,"10 rue des Capucines, 75002 Paris France",163,4.5,"Frog Hop House is situated between the glamorous shopping of the Vendome and the bustling warren of streets that fringe the world famous Paris Opera. Frog Hop House specialises in a constantly changing range of artisan craft FrogBeer, genuinely good burgers and American BBQ & soul food.",697,$$ - $$$,$10 - $20,48.8688361,2.3296197
"L'Entente, Le British Brasserie","13 rue Monsigny, 75002 Paris France",142,4.5,"Inspired by Traditional British Cuisine, but dedicated to Excellent French Terroir Products, except for the cheese...",532,$$ - $$$,$20 - $45,48.8691222,2.3355031
Flesh Restaurant Canal Saint Martin,"23 rue Louis Blanc, 75010 Paris France",159,4.5,,962,$$ - $$$,$10 - $40,48.8800846,2.3668593
Aux Enfants Gates,"4 rue Danville 75014, 75014 Paris France",149,4.5,"Venez découvrir une cuisine du marché sans cesse renouvelée dans une ambiance simple et chaleureuse. Le chef interprète une cuisine généreuse, gourmande et créative. Il apporte un soin minutieux à l’esthétisme de ses assiettes dans le prolongement du travail de ses producteurs.La cuisine se veut durable et originelle pour être au plus proche du vrai goût du produit.",622,$$ - $$$,$36 - $60,48.8343994,2.3276126
Bodega Potxolo,"7 rue de la Forge Royale, 75011 Paris France",168,4.5,"Potxolo is a basque Bodega aims to transport you to the basque country and his neighbour Spain on an envening. Our tapas cooked with grat skill by the chief Patrice, will remind you of the warmth of the south and in a festive and joyful atmosphere.",293,$$ - $$$,$19 - $35,48.8509534,2.3802024
Les Canailles,"25 rue la Bruyere, 75009 Paris France",167,4.5,,749,$$ - $$$,,48.8792957,2.3345866
JJ Restaurant,"34 rue de Penthievre, 75008 Paris France",157,4.5,,500,$$ - $$$,,48.8723957,2.3136618
Buzkashi,"Rue des Dames, 75017 Paris France",145,4.5,"Only steps away from Place Clichy in Paris, is a pleasant family restaurant, typically afghan.Vous will be received warmly authentic decor and taste the specialties Afghanistan. You can choose to enjoy comfortably seated at a table or in a platform, sitting on cushions surrounded by Afghan carpets, an invitation to travel .... Of typical dishes of steamed rice (tchalow), to skewers of meat (kabob) and spices,Ashak (small dumplings with leeks with his meat with yogurt, Kaboli(lamb, brown rice with dried fruits and vegetables) and many other dishes to discover.",287,$$ - $$$,$12 - $33,48.8830705,2.3184341
The Frog Revolution,"9 rue de la Bastille, 75004 Paris France",160,4.5,"FROG REVOLUTION is situated on the historic site of the place de la Bastille, in the heart of a neighborhood now as well known for its vibrant nightlife as its revolutionary past. Part pub, part lounge, Frog Revolution serves home brewed craft beer on 24 taps, as well as a finger lickin' American BBQ & Soul Food menu and Genuinely Good Burgers till late seven nights a week.",772,$$ - $$$,$11 - $20,48.8538696,2.3683007
La Table Du Caviste Bio,"55 rue de Prony, 75017 Paris France",161,4.5,"965/5000 - 100% homemade dishes - Quality products and 80% organic. - An ethic that favors local markets and short circuits. - A talented Japanese chef, demanding and precise with her cuisine. - A wine cellar of 250 references, 100% organic or from biodynamic cultivation. Here are the ingredients that make La Table.bio a unique restaurant, offering gourmet cuisine with subtle Asian accents and unique food and wine pairings. The dishes presented on the menu or à la carte are changed every week, to adapt to the seasons and to the culinary discoveries offered by chef Junko. Dominique, who perfectly masters the 250 references of the cellar, will make you discover unknown terroirs, for surprising food and wine pairings. Do not hesitate to come and discover our lunch options, specially adapted for epicurean breakfasts, at a very reasonable price. From € 27 for lunch and € 45 for the evening.",204,$$ - $$$,$35 - $90,48.8823535,2.3038656
Aux Delices du Liban,"3 rue de l Estrapade, 75005 Paris France",172,4.5,,235,$$ - $$$,$17 - $30,48.8444401,2.3478396
Ristorante Al Caratello,"5 rue Audran, 75018 Paris France",133,4.5,,1935,$$ - $$$,$16 - $25,48.8851871,2.3358188
Chez Gabrielle,"7 rue de l Etoile, 75017 Paris France",154,4.5,,1120,$$ - $$$,,48.8766938,2.296208
Figuig,"Rue Brey 13, 75017 Paris France",138,5,"Fouzia a toujours partagé la passion de son mari pour la restauration, tandis qu'il ouvrait et gérait des restaurants, elle s'est orientée vers le management d'entreprise jusqu'à ce que le destin lui offre l'opportunité de réaliser son rêve, faire découvrir et apprécier la gastronomie du Maroc, une des plus savoureuses du monde. C'est ainsi qu'est né le restaurant Figuig. C'est pourquoi maintenant, dans le prestigieux quartier de l'Étoile, vous pouvez vous aussi découvrir le meilleur de cette cuisine dans un décor chic et raffiné, un endroit où Fouzia fusionne les gastronomies françaises et marocaines qui vous feront voyager bien au-delà de vos rêves.",178,$$ - $$$,$35 - $50,48.876441,2.2957288
L'Annexe,"13 rue des Trois Freres, 75018 Paris France",144,4.5,,879,$$ - $$$,$20 - $40,48.8842972,2.3412071
Le Sanglier Bleu,"102 boulevard de Clichy, 75018 Paris France",148,4.5,,838,$$ - $$$,$16 - $45,48.8842785,2.3314731
Mian Fan,"15 boulevard Montmartre, 75002 Paris France",225,4.5,"Il fallait une adresse comme Mian Fan pour dynamiser la vie nocturne du quartier des Grands Boulevards . En face du musé Grevin, cette belle table contemporaine revisite la gastronomie asiatique dans une surprenante fusion des saveurs. Ce soir, une subite envie d’évasion culinaire vous prend ? Nous avons l’escale qu’il vous faut, au croisement de la Chine, la Thaïlande, le Vietnam, la Corée, le Japon et du 2e. Mian Fan Asian Fusionj Bowls , c’est toutes ces saveurs d’Asie travaillées avec soin (produits frais, plats faits maison, savoir-faire d’un chef venu de Shanghai) et modernisées à la sauce européenne pour bousculer un peu les traditions fossilisées. Après l’esprit cantine “business” du midi, place à une ambiance cosy ou plus punchy le soir, selon les jours, les humeurs et la playlist de Julien, aux commandes du restaurant.",670,$$ - $$$,$9 - $22,48.8716197,2.3412869
La Bonne Excuse,"48 rue de Verneuil, 75007 Paris France",177,4.5,New Restaurant,772,$$$$,,48.858455,2.3276937
Didon.,"8 rue du Dragon, 75006 Paris France",78,5,"Cuisine française bistronomique, de partage et au charbon de bois. Produits de saison, plats végétariens et végans aussi.",328,$$$$,$80 - $100,48.853754,2.3312227
Bella Georgette,"3 rue Auguste Daix, 94260 Fresnes France",1,4.5,,308,$,,48.7541715,2.3203216
Le Bayadere,"35 rue de Berri, 75008 Paris France",152,5,"The restaurant and bar Le Bayadère offers delicious recipes cooked with seasonal and local products. Enjoy a tasty French cuisine with a creative touch, in an elegant and warm atmosphere.",76,$$$$,$29 - $37,48.8736403,2.3062624
Le Belisaire,"2 rue Marmontel, 75015 Paris France",179,4.5,,749,$$ - $$$,,48.8374438,2.300999
Grains Nobles et Plus,"8 rue Boutebrie, 75005 Paris France",116,4.5,,522,$$ - $$$,$20 - $46,48.8514978,2.3446064
L'Aubergeade,"17 rue Chaligny, 75012 Paris France",162,4.5,,1108,$$ - $$$,,48.8465424,2.3835075
Les Passagers de Beyrouth,"18 Passage de la Bonne Graine Quartier Bastille, 75011 Paris France",147,4.5,,752,$$ - $$$,,48.8522994,2.3771804
Le Bouclard,"1 rue Cavallotti, 75018 Paris France",165,4.5,"Michel has reenacted an old Parisian restaurant where under the supervision of Rosalie he elaborates some of the best French traditional dishes such as: crayfish tails gratine with Macon blanc-Terrine of foie gras served with tiny potatoes brushed with truffle olive oil, fresh shives and flower salt from “guerande”- Veal breast with thyme, slowly braised 48 hours at °F145 - Heart of veal sweetbread Alexander style. Icing on the cake, is the home made Pastrami noted 4 stars by American patrons of the restaurant. The \he Man\pieces of meat are carved in front of the patrons. Michel signs all his recepies inherited or inspired by his forbears, some of them being dishes requiring lots of tender loving care.",367,$$ - $$$,$25 - $75,48.885776,2.3287243
TATA Burger,"54 rue Ste Croix de la Bretonnerie, 75004 Paris France",79,4.5,,1571,$,$11 - $17,48.8589952,2.3540015
1000 & 1 Signes,"76 rue de Charonne, 75011 Paris France",112,5,"1000 & 1 Signes is a place where everything is done to accommodate exchange between deaf and hearing able people. A small brochure demonstrating basic signs is given along with the menu. There are also white boards to facilitate communication between customers. Food fresh from the farmer's market is served at 1000 & 1 Signes in a decor revisited Made in Bled. You will find all the flavors and colors of the traditional Moroccan cuisine such as bricks, Tajine and of course the Couscous. It doesn't matter whether you are hearing able or deaf, you will feel at home in 1000 & 1 Signes.",191,$$ - $$$,$6 - $40,48.8534804,2.3801607
Savannah Cafe,"27 rue Descartes 75005, 75005 Paris France",98,4.5,,661,$$ - $$$,$16 - $20,48.8459423,2.3491893
L'Oliveto,"38 rue de Buci, 75006 Paris France",134,4.5,"Open the door and be greeted by Gandolfo, to L'Oliveto, and discover the best of fine Italian dining in Saint Germain des Prés, 38 rue de Buci,in the 6th district in Paris. Come and taste the authentic taste of Southern Italian dishes, prepared daily with fresh ingredients where you can taste the sunshine in the food, lovingly cooked by our Chef , passionately bring you the taste of the finest home cooking. Reservation recommended by phone or website Loliveto-paris.fr . Air conditioning !",1533,$$ - $$$,$20 - $45,48.8533873,2.3359705
Les Crepes de Louis-Marie,"1 rue de l Arbalete, 75005 Paris France",189,4.5,"Les Crêpes de Louis-Marie makes you delicious french crêpes in a welcoming place. The crêpes are all made by Louis-Marie with fresh products and some of them are gluten free. Regularly, according to your preferences, the Menu changes. We are open from Monday to Friday from 12 pm until 3 pm and from 7pm until 11 pm. We looking for welcoming you for a degustation.",292,$,$4 - $16,48.8404363,2.3503724
Il Padrino,"49 rue Custine, 75018 Paris France",192,4.5,,320,$$ - $$$,,48.8893937,2.3440469
Bustronome Paris,"2 avenue Kleber, 75116 Paris France",140,4.5,"Aboard a double-decker bus converted into a restaurant, guests will enjoy a friendly welcome and a wide variety of dishes in a fashionable setting. The BUSTRONOME : a Parisian invitation to rediscover some of the City of Light's most beautiful locations while enjoying fine French cuisine. This singular journey combines a visual experience with a treat for the taste buds; Paris residents and tourists alike can indulge their love of culture while savouring good food.",284,$$$$,$70 - $150,48.8726538,2.2939509
La boite aux lettres,"108 rue Lepic, 75018 Paris France",194,4.5,"You have to climb the famous Rue Lepic to find La Boite aux Lettres. A charming bistro which offers refined appetizing dishes with seasonal products. For the undecided ones, the set menu ",1156,$$ - $$$,$13 - $39,48.8867739,2.338186728
Buddha Restaurant,"13 rue Saint Hippolyte, 75013 Paris France",199,4.5,,463,$$ - $$$,$10 - $25,48.836001,2.3470528
Pages,"4 rue Auguste Vacquerie, 75116 Paris France",198,4.5,,267,$$$$,$65 - $240,48.8708869,2.2962
L'Escudella,"41 avenue de Segur, 75007 Paris France",231,4.5,MODERN BISTROT with Gastronomique cuisine in the heart of the 7th district of Paris. Near the Eiffel Tower but in a quiet and chic neighborhood. The young and talented Rémi Poulain just took over the oven of L'Escudella to provide a fine french dining with innovative cuisine techniques. A small restaurant with a fine setting for its main room of 26 seats and a private room for up to 14 people will welcome you in a warm and cosy ambiance.,393,$$ - $$$,$24 - $55,48.8505602,2.3091812
La Petite Rose des Sables,"6 rue de Lancry, 75010 Paris France",182,4.5,"Welcome to ""la petite rose des sables"", the warmest and most welcoming restaurant in Paris :) This family restaurant is very small (you can fit 6-10 people) and does not take reservations (especially through Hotels). The best way to eat there is to drop by and see if it's open / if there is space. Indeed, lots of friends come often so it can happen that there's birthdays, special reservations, etc. Due to popularity and for all the reasons above, Zouzou and Christian would like to host everyone but it is sometime impossible, try to be comprehensive and act with gentle manners. Moreover, we're very sorry for the people that were disappointed recently, Zouzou got her collarbone broken so the restaurant might be close from time to time with notice on the front door. Enjoy your stay in Paris Kind Regards - The little pink sands fan club",940,$,$15 - $30,48.8689259,2.3601381
Le Cherine,"74 rue de la Croix Nivert, 75015 Paris France",129,5,"A family story , a father - daughter duo that comes to life between Paris and Beirut. Behind the doors of 74 rue de la Croix Nivert a House is born. Inspired by the Lebanese culture , Cherine has managed to divert this space by tucking the light and playing on transparencies , allowing free expression of raw materials such as metal and stone . In this modern decor in warm shades of gold and copper - reminiscent of a sunset - The scents of the dishes signed by the chef's creativity take you through the historic streets of Beirut. The Menu is an invitation to a journey that will show you the way to Lebanon.",435,$$ - $$$,$35 - $60,48.8445666,2.2967203
L'Hommage,"36 avenue de Choisy, 75013 Paris France",193,4.5,,300,$$ - $$$,$27 - $58,48.8223334,2.3630991
Chantoiseau,"63 rue Lepic, 75018 Paris France",166,4.5,,138,$$$$,,48.8877923,2.3347096
"Respiro, Trattoria - Pizzeria","18 rue Maitre Albert, 75005 Paris France",184,4.5,"Souhaitez-vous savourer une pizza exquise ? Rendez-vous dès maintenant au restaurant italien Respiro, Pizzeria — Trattoria au 18 rue Maître Albert 75005 Paris. Le restaurant propose plusieurs spécialités italiennes et est réputé pour la saveur unique de ses pizzas. Elles sont très savoureuses et vous transportent en Italie. Chef cuisinier et gérant, le sicilien Francesco Casisa est un expert de la préparation des pizzas. Diplômé à Rome depuis 2004, cet authentique pizzaïolo propose une large variété de plats d’origine sicilienne. Afin de réussir ses pizzas, il prépare la pâte et la conserve dans une cave où l’humidité est parfaite. De même, pour la vraie sauce tomate, il utilise les tomates Mutti d’Italie et des produits frais. Faites un tour dans ce restaurant et vous vous retrouverez en partie en Italie. Un accueil typiquement italien vous est réservé.",210,$$ - $$$,$7 - $43,48.8504923,2.3494743
Picotte,"42 rue de Malte, 75011 Paris France",170,4.5,"A deux pas de la Place de la Republique, le restaurant Picotte vous propose de decouvrir ou redecouvrir les specialites regionales qui font la renommée de la cuisine francaise. Servies sous la forme de petits plats a partager, Picotte est basé sur le partage et la decouverte. Notre carte evolue au fil des saisons, nos produits sont frais et notre cuisine a du gout et du caractere !",195,$$ - $$$,$27 - $40,48.866188,2.3675207
TRADI,"4 rue du Mail, 75002 Paris France",178,4.5,Bistro Français ou tout y fait maison avec des produits frais et français avec un maximum de circuit court . Une carte des vins alléchante qui est remaniée souvent .,663,$$ - $$$,$35 - $62,48.866367,2.3415761
Phebe,"190 rue de Courcelles, 75017 Paris France",187,4.5,,317,$$ - $$$,$20 - $50,48.885656,2.296779
Chez Trassoudaine,"3 Place Nationale, 75013 Paris France",197,4.5,,550,$$ - $$$,,48.8287535,2.3650472
Le Bistrot d'Indochine,"49 rue de Dantzig, 75015 Paris France",155,4.5,,454,$$ - $$$,$12 - $35,48.8307825,2.2964544
Seb'on,"62 rue d'Orsel, 75018 Paris France",173,4.5,,1209,$$ - $$$,,48.8835964,2.340289
GRUPPOMIMO - Paris 2,"157 rue Montmartre, 75008 Paris France",180,4.5,,883,$$ - $$$,,48.8707262,2.3426729
Santa Carne,"3 boulevard Richard Lenoir, 75011 Paris France",254,4.5,,1004,$$ - $$$,,48.8547105,2.3694118
Bistrot Cote Seine,"12 quai Georges Clemenceau, 78380 Bougival France",1,4.5,,483,$$ - $$$,$15 - $30,48.8673573,2.1400684
Le Cabanon de la Butte,"6 rue Lamarck, 75018 Paris France",220,4.5,,684,$$ - $$$,,48.8866183,2.3444051
Huitres et Saumons de Passy,"17 rue de l Annonciation, 75016 Paris France",208,4.5,,366,$$ - $$$,$24 - $65,48.8563229,2.2797345
Pop's,"38 rue du Ranelagh, 75016 Paris France",203,4.5,"Come discover mediterranean cooking and awesome products. Taste generous dishes and pizzas at very reasonable prices. The design atmosphere and friendly service makes it a great place to have lunch and dinner. Pop's offers you a Mediterranean cuisine based on fresh products. At Pop's, everything is homemade. Welcoming and language skilled crew.",646,$$ - $$$,$12 - $25,48.8541661,2.2758992
Juveniles Wine Bar,"47 rue de Richelieu, 75001 Paris France",206,4.5,,467,$$ - $$$,,48.8662741,2.3371009
Le Clos Y,"27 avenue du Maine, 75015 Paris France",204,4.5,,502,$$$$,$45 - $100,48.843018,2.320929
Al Assil,"50 boulevard de Magenta, 75010 Paris France",217,5,,84,$,,48.8729446,2.3592899
Cantina Chic,"14 rue de l Etoile 75017 Paris, 75017 Paris France",232,4.5,"Small and casual restaurant, fresh products, home made food, friendly service, nice italian wines and low prices.",488,$$ - $$$,$15 - $25,48.8772827,2.2955476
The Frog and Princess,"9 rue Princesse, 75006 Paris France",195,4.5,"THE FROG & PRINCESS is situated in a beautiful part of Paris called Saint Germain-des-pres. It is a cool, trendy bar with a professional & hip young anglophile clientele. International student nights burst at the seams and throughout the week all major football, rugby and NFL games are shown. If you are visiting Paris for the weekend, it is certainly worth taking The Frog & Princess in, and if you are an expat living in Paris it is a great place, located on the left bank, to make your regular haunt.",476,$$ - $$$,$11 - $17,48.8522786,2.3345451
Le Sergent Recruteur,"41 rue Saint Louis en L Ile, 75004 Paris France",212,5,,179,$$$$,$39 - $179,48.8519572,2.3560211
Mian Fan,"124 boulevard du Montparnasse, 75014 Paris France",245,4.5,,551,$$ - $$$,$1 ,48.8412212,2.331357
Restaurant La Pie Noir,"5 rue de la Montagne Ste Genevieve, 75005 Paris France",190,4.5,,523,$$ - $$$,$20 - $32,48.8492982,2.3488742
Le Ju',"16 rue des Archives, 75004 Paris France",233,4.5,Les réservations en terrasse ne sont pas garanties. Merci de réserver uniquement pour un repas. Reservation only for food. Reservation only inside.,946,$$ - $$$,$9 - $22,48.8577054,2.3547735
Restaurant eels,"27 rue d Hauteville, 75010 Paris France",174,4.5,,470,$$$$,,48.8732299,2.3502848
La Trattoria dell'Isola,"40 rue Rodier, 75009 Paris France",141,4.5,,842,$$ - $$$,$15 - $30,48.8794593,2.3433949
Flesh Restaurant Pigalle,"25 rue de Douai, 75009 Paris France",223,4.5,,858,$$ - $$$,$20 - $40,48.8823233,2.333044
Happy Caffe,"214 rue de Rivoli, 75001 Paris France",213,4.5,"Home made products, organic crepes, hot and cold drinks, fresh salad. Some places to seat available. From January 17th, we will be closed in order to renew our shop and for creating some seats. Thank you for your comprehension.",792,$,$1 - $5,48.8646657,2.3295574
Pane olio e pomodoro,"46 rue de la Fontaine au Roi, 75011 Paris France",218,4.5,,489,$$ - $$$,$10 - $25,48.8680131,2.3729673
Zia,"22 avenue de Tourville, 75007 Paris France",205,4.5,"Zia is a coffee shop & eatery in the 7th arrondissement of Paris. Serving quality coffee and delicious, market-fresh breakfast, brunch, and lunch. Also offering gourmet picnics to go in the spring and summer. Zia is owned by Chef Justin Kent an American in Paris since 2011.",228,$$ - $$$,$10 - $35,48.8542386,2.3071882
La Cassolette,"44 avenue du Mesnil, 94210 Saint-Maur-des-Fosses France",1,4.5,"Cuisine traditionnelle française faite maison au rythme du marché... Formule déjeuner du mardi au vendredi : ""Entrée du jour + plat du jour"" ou ""Plat du jour + dessert du jour"" + ""1 verre de vin ou 1 café"" = 14,00 €",209,$$ - $$$,$15 - $30,48.7972602,2.5162485
Kei Restaurant,"5 rue Coq Heron, 75001 Paris France",200,4.5,,1107,$$$$,$58 - $199,48.864328,2.3421687
Caramel Sarrasin,"47 rue du Faubourg Montmartre, 75009 Paris France",201,4.5,"French traditional crêperie restaurant with gluten free savory crêpes ( galettes) and crêpes. Home made toppings, ice tea, salad dressing, kasha tabbouleh, apéritive drinks, ... Stéphane owner and chef crêpe maker with more than 20 years of expérience give also crêpe cooking class every afternoon 3.45pm to 6.30pm only on booking. Winner of the tripadvisor traveller choice in 2022. See you soon",351,$$ - $$$,,48.8746743,2.3413283
Le 975,"185 rue Marcadet, 75017 Paris France",216,4.5,,309,$$ - $$$,$23 - $43,48.8915719,2.3353521
La Bossue,"9 rue Joseph de Maistre, 75018 Paris France",202,4.5,,500,$$ - $$$,$1 - $12,48.8860249,2.3340683
Aux 2 Saveurs,"6 rue Emile Gilbert, 75012 Paris France",209,4.5,"High quality French restaurant by Japanese chef located in the 12th district of Paris near Gare de Lyon and Bastille. This address focuses on the quality, and we offer the menu that changes regularly and 100% homemade.",312,$$ - $$$,$30 - $45,48.8463691,2.3733056
Virtus,"29 rue de Cotte, 75012 Paris France",222,4.5,,364,$$$$,$45 - $125,48.8502429,2.378162
L'Acolyte de L'Insolite,"49 rue de la Folie-Mericourt, 75011 Paris France",196,4.5,,405,$$ - $$$,$17 - $35,48.8641434,2.3716478
A-Table,"92 rue de la Reunion, 75020 Paris France",215,4.5,"The Iranian cooking is one of the cultural elements that makes it particularly well aware of the subtlety of the actual Iranian culture. The colorful table is in itself quite telling. It offers a wide variety of foods, dishes, desserts, condiments and accompaniments. Different kinds of soups, stews, rice, breads, syrups, etc. are there to report on Iranian culinary practices of past centuries, and",512,$,$15 - $20,48.8570854,2.3998687
24 Le Restaurant,"24 rue Jean Mermoz Champs-Elysées, 75008 Paris France",186,5,,382,$$$$,$39 - $59,48.871086,2.3117876
La Puce,"17 rue Ernest Renan, 93400 Saint Ouen France",1,4.5,"in a small quiet street, a unique location in Saint Ouen, you can discover chef's cuisine from the gastronomy. Simple and modern dishes, well prepared seasonal products. Service is both discreet and present. Wine selection in alliance with small French producers and foreign selection. Open from Tuesday to Saturday for lunch (noon till 2:00 pm) and dinner (from 7:30 pm till 10:00 pm).",451,$$ - $$$,$15 - $36,48.909098,2.331973
Alan Geaam Restaurant,"19 rue Lauriston, 75116 Paris France",210,4.5,,228,$$$$,$68 - $148,48.8714572,2.2923141
Trois Crabes,"17 rue Claude Tillier, 75012 Paris France",255,4.5,,318,$$ - $$$,,48.8482371,2.3880034
Le Lamarck,"8 rue Lamarck, 75018 Paris France",235,4.5,,394,$$ - $$$,,48.88674635,2.344516751
Hebe,"15 rue Frederic Sauton, 75005 Paris France",185,4.5,,1263,$$ - $$$,$16 - $70,48.8507788,2.3491162
Le Vin Coeur,"4 avenue Carnot, 75017 Paris France",269,4.5,,766,$$ - $$$,,48.8752985,2.2939724
Bellini,"140 avenue de la Republique, 92120 Montrouge France",1,4.5,,306,$$ - $$$,,48.8124021,2.3156787
Mobster Diner,"20 rue des Boulangers 75005, 75005 Paris France",246,4.5,"Mobster Diner, one of the best burgers in Paris, was created in 2014 with a mindset: to offer high quality burgers at an unbeatable price. Great lovers of jazz, the founders have created a convivial atmosphere that best reflects the most representative period of this musical genre: the 1920s and prohibition. The restaurant is open 7 days a week, for lunch and dinner in the 5th arrondissement of Paris, near Jussieu, Cardinal Lemoine, Place Monge, rue Mouffetard, pantheon, Quartier Latin and the Jardin des Plantes. Vege burgers are possible for all the burgers offered. Address : 20 rue des boulangers. (5 Minutes away from la Sorbonne and Notre Dame) Metro Jussieu & Cardinal Lemoine, line 7 and 10.",712,$,$9 - $13,48.8458821,2.3533232
La Grande Ourse,"9 rue Georges Sache, 75014 Paris France",250,4.5,,301,$$ - $$$,,48.8322137,2.3233454
L'Escale Caraibeenne,"3 Galerie de la Fontaine, 92360, Meudon France",1,4.5,,195,$$ - $$$,$10 - $18,48.7873035,2.2276604
Sourire Le Restaurant,"15 rue de la Sante, 75013 Paris France",243,4.5,"Cuisine gastronomique dans un cadre cosy et chaleureux composé de grande table en marbre et de fauteuils en velours bleu. Le chef Justin Brohm propose une cuisine d'auteur et travaille des produits saisonniers de qualité avec des accords originaux, twiste certains classiques, embellit des produits moins nobles ou joue sur des unions étonnants. Le menu change tout les mois en fonction des saisons et des produits proposés par les producteurs, s'adaptant ainsi à ce qu'offre la nature. Les vins sont choisis par le sommelier auprès de vignerons dûment sélectionnés.",416,$$$$,$39 - $69,48.8371739,2.3420167
Bistrot l'Olivier,"88 rue Ordener, 75018 Paris France",240,4.5,,424,$$ - $$$,,48.8928483,2.343035654
Lilane,"8 rue Gracieuse, 75005 Paris France",239,4.5,,348,$$ - $$$,,48.8422768,2.3515966
Ze Kitchen Galerie,"4 rue des Grands Augustins, 75006 Paris France",249,4.5,,1463,$$$$,$41 - $98,48.8550903,2.3412924
Don Giovanni,"19 rue Francois Miron, 75004 Paris France",241,4.5,,479,$$ - $$$,,48.8557313,2.3571723
Lucette fait des Crepes,"4 rue de Milan, 75009 Paris France",262,4.5,Best crepes in town. Everything is homemade and... Made with love ! A large choice of organic products served with the beautiful smile of our waitress...,416,$,$3 - $24,48.8789981,2.3292387
Pierre Gagnaire,"6 Rue Balzac, 75008 Paris France",238,4.5,,1042,$$$$,,48.8733525,2.3003767
Jeongane,"60 rue des Morillons, 75015 Paris France",277,4.5,Notre repas principal est le barbecue et le Bibimbap. Notre restaurant est à Paris dans le 15ème arrondissement au 60 rue des Morillons 75015. Notre restaurant à été ouvert en septembre 2016.,279,$,,48.8318985,2.3042293
Habesha,"19 rue Copreaux, 75015 Paris France",253,4.5,,226,$$ - $$$,,48.8417251,2.3069423
L'Envie du Jour,"106 rue Nollet, 75017 Paris France",275,4.5,,555,$$ - $$$,$16 - $44,48.888782,2.3183588
Restaurant Japonais La Marina,"18 Rue de la Michodiere, 75002 Paris France",258,4.5,,319,$$ - $$$,$9 - $30,48.8704412,2.3349062
BMK Paris-Bamako,"14 Rue de la Fidelite, 75010 Paris France",252,4.5,,210,$$ - $$$,$10 - $16,48.8746102,2.3565722
Cafe Blanche,"79 rue Blanche, 75009 Paris France",224,4.5,"Situé à deux pas du célèbre Moulin Rouge à Paris, le Café Blanche vous propose une restauration française de qualité. Retrouvez une ambiance festive grâce au nombreux concerts qui animeront vos soirées.",159,$$ - $$$,,48.8832047,2.3321502
BAFFO,"12 Rue Pecquay, 75004 Paris France",273,4.5,,487,$$ - $$$,$40 - $130,48.8601419,2.3562158
Le Petit Amalfi,"29 rue de Turin, 75008 Paris France",261,4.5,,391,$$ - $$$,,48.8823404,2.3242639
Petite Fleur,"5 rue Damremont, 75018 Paris France",256,4.5,"Petite Fleur is an intimate, cozy & friendly Parisian Bistro. We cook only fresh, seasonal and locally sourced products. Our plates are all too share and change every day. Our Biodynamic and/or naturel wines are all from small French wineyards.",567,$$ - $$$,$23 - $50,48.8875288,2.3325497
Le Saotico,"96 Rue de Richelieu, 75002 Paris France",260,4.5,,1174,$$ - $$$,$18 - $50,48.870623,2.3394846
Olympe Sports Cafe,"46 avenue du General de Gaulle, 94300 Vincennes France",2,4.5,,259,$$ - $$$,$18 - $29,48.8417447,2.4330345
Chez Madeleine,"39 rue de Paris, 92100 Boulogne-Billancourt France",1,4.5,,558,$$ - $$$,,48.8399827,2.245392
Monterosso,"7 rue Georges Bouzerait, 92120 Montrouge France",2,4.5,,189,$$ - $$$,,48.818955,2.3244669
La Pause Libanaise,"10 Rue De L'Isly, 75008 Paris France",284,4.5,"Découvrez le meilleur restaurant libanais de Paris ️ Goûtez nos spécialités libanaises, à proximité de la gare Saint-Lazare, en livraison, sur place ou à emporter. La Pause Libanaise vous propose des plats traditionnels halals entièrement faits maison : houmous, falafel, mézzé libanais, moutabal d'aubergines, salade Fattouch et bien plus encore ! Chaque jour, nos plats méditerranéens sont cuisinés avec des produits frais et de qualités. Pour accompagner votre repas, profitez de notre sélection de vins et de bières libanaises.",776,$,$20 - $45,48.8748497,2.3254028
Brutus - Batignolles,"99 rue des Dames, 75017 Paris France",272,4.5,Modern crepery with cider bar. The restaurant is temporary closed due to renovations. It will reopen on Monday August 27th 2018.,276,$$ - $$$,$12 - $20,48.8830175,2.3184119
La Scene Theleme,"18 Rue Troyon, 75017 Paris France",264,4.5,"An unusual site where you find a starred restaurant and a small theatre, the two owner’s passions. In charge of the restaurant, Yoshitaka Takayanagi is one of the brightest chef of his generation: refinement, harmony, creativity, fresh seasonal ingredients from the market, perfect cooking. Félix Manenti and his staff will be happy to welcome you for a memorable moment.",430,$$$$,$49 - $149,48.8762593,2.2951581
Le Loubnane,"29 rue Galande, 75005 Paris France",265,4.5,"It was in 1984 that Kamal Nassif, heir to the Ambassador of the Lebanese Gastronomy in France, had the good sense to open Loubnane, continuing the work of his uncle: Rachid Youssef Makhoul, who was the first to try their luck dice 1952 by Chez Rachid, the delights of Lebanon, the only Lebanese restaurant in France. - Quality, home, passion has always been the currency of all establishments that Rachid Kamal and his brothers had the pleasure to know you over the years. - If the history of Lebanon is as complex as rich, what about her Gastronomy? Varied, fine and full of paradoxes, you will find in each of the dishes offered a delicious perfume of the Middle East, a subtle blend of spices and a story that Kamal and his team will surely tell you. - The Loubnane is one of those magical places or form has nothing to envy to the bottom; take time to discover the 13th Century Private rooms in the basement, drenched in history, they will transport you somewhere in the Land of Cedars or the meal is much more than a break in the day ... - It's your turn, close your eyes and let yourself be lulled by the favorite cuisine du Général de Gaulle ...",1382,$$ - $$$,$25 - $45,48.8512133,2.3476661
Les Trublions,"34 rue de la Montagne Ste Genevieve, 75005 Paris France",288,4.5,"Raula & Romain are happy and proud, after 18 years (for Romain) and 10 years (for Raula), to welcome you to their small, cosy and intimate Bistrot Gourmand. After 2 months of hard work and decoration, Les Trublions opened and we would like you to be part of it's first chapter . We wanted to make this place our life project and a blend of our passions: that of receiving, that of good taste without any fuss, that of sharing flavours, that of smiles and pleasure, that of good wine and good memories.We would like to transform this place into a cocoon for our guests as well as for ourselves by sharing a moment of simplicity where timeless values like good wine, food and words combine. Culinary and Gastronomic Regards.",437,$$ - $$$,$19 - $34,48.8480541,2.3484623
Lea,"152 rue de Paris, 94220 Charenton-le-Pont France",1,4.5,,324,$$ - $$$,$14 - $35,48.8275255,2.4046359
Casa Festa,"16 rue Jean Jacques Rousseau, 75001 Paris France",300,4.5,,743,$$ - $$$,,48.8625764,2.3407389
L'Accolade,"208 rue de la Croix Nivert, 75015 Paris France",292,4.5,,225,$$ - $$$,,48.8372527,2.2893421
Tonkatsu Tombo,"14 rue de l Arrivee, 75015 Paris France",281,4.5,,246,$$ - $$$,,48.8432892,2.3217021
Restaurant OXTE,"5 rue Troyon, 75017 Paris France",283,4.5,,262,$$$$,,48.8758951,2.2954072
Le Louis,"31 rue Coquilliere, 75001 Paris France",257,4.5,"Le Louis est un restaurant de cuisine Française traditionnelle où tout est fait maison, avec amour à partir de produits frais et de saison. Le cadre est authentique avec ses vieilles pierres et ses poutres apparentes, l'espace réduit, et le service chaleureux, de sorte à ce que chacun se sente un peu comme à la maison! En invité! Le Louis a obtenu sa Toque Gourmande ""Gault & Millau en juin 2022.",1055,$$ - $$$,$20 - $50,48.8642497,2.3414166
46 & 3rd,"46 rue de Turbigo, 75003 Paris France",247,4.5,"Hello, thank you for your interest at our restaurant. We do not accept reservations, please come anytime you want… We use fresh, seasonal and finest ingredients for our recipes. Our specialty is breakfast & brunch every day of the week... We are passionate about our pancakes, our crispy bacon, our eggs Benedict options and our coffee. We hope that you will spend great time at our restaurant with your friends, families or alone. Looking forward to meeting you!! 46 & 3rd Team",255,$$ - $$$,$10 - $28,48.8651337,2.3550658
Rajpoot,"31 rue Charles de Gaulle, 94140 Alfortville France",1,4.5,,317,$$ - $$$,,48.8147473,2.4158632
Chez Toinette,"20 rue Germain Pilon, 75018 Paris France",259,4.5,Welcome on our typical Parisian place in Montmarte. We welcome you every day except Sunday from 7:00 pm We propose you nice French food and wines… You can reserve by phone or mail. Hope to see you soon,1618,$$ - $$$,$19 - $40,48.8841497,2.3369147
Olive & Thym - Par Man'ouche,"60 rue Quincampoix, 75004 Paris France",242,4.5,"Est un concept imaginé par deux frères d'origine libanaise bercés par la cuisine méditerranéenne. Après avoir redynamiser le street food Man'ouché institution de la galette traditionnelle libanaise, ils s'inspirent de nouvelles tendances food pour remettre la cuisine libanaise au gout du jour avec de nouvelles recettes et un nouveau format baptisé la «cartounée»...",313,$,,48.8615802,2.3508078
La Reserve Du Terroir,"13 Rue Quincampoix, 75004 Paris France",358,5,,528,$,$15 - $35,48.8596175,2.3497537
Les Fines Lames,"35 rue Lepic, 75018 Paris France",280,4.5,,239,$$$$,$30 - $70,48.8862632,2.3340045
YO,"10 rue de Port Mahon, 75002 Paris France",285,4.5,,456,$$ - $$$,,48.8696464,2.3340805
Papelli,"61 rue du Faubourg Saint Martin, 75010 Paris France",298,4.5,Papelli is an italian trattoria Everyday fresh pizzas and salads A large propositions of drinks Cool place with selected products,341,$$ - $$$,$9 - $18,48.8716058,2.3569242
Le Cambodge,"2 rue Leriche, 75015 Paris France",308,4.5,,213,$,,48.8359233,2.2940579
Les Cedres Du Liban Paris,"5 Avenue Du Maine, 75015 Paris France",289,4.5,,1045,$$ - $$$,$10 - $25,48.8444859,2.3203079
O Soleil Couscous Maison,"21 rue de Patay, 75013 Paris France",555,5,,182,$,$8 - $18,48.8248944,2.3755053
Auberge des Saints Peres,"212 Av. de Nonneville, 93600 Aulnay-sous-Bois France",1,4.5,,381,$$$$,$40 - $51,48.919956,2.48953
Les Papilles Bougival,"61 rue du General Leclerc, 78380 Bougival France",2,4.5,"Soyez les bienvenus aux Papilles ! :) Nous vous proposons une cuisine Bistronomique Française aux influences Méditerranéennes et Asiatiques. Notre carte évolue régulièrement en fonction des arrivages et de la saisonnalité, vous pouvez réserver en ligne sur notre site, à bientôt Retrouvez nous sur Instagram : @lespapillesbougival",493,$$ - $$$,$17 - $42,48.8642194,2.1398839
Royal Dragon,"98 boulevard du Montparnasse, 75014 Paris France",328,4.5,Restaurant de type buffet à volonté chinois japonais . Grande variétés de plats et de dessert à votre disposition beaucoup de choix .,706,$,$12 - $30,48.8424152,2.3276286
LOCO,"31 bis Rue du Faubourg Montmartre, 75009 Paris France",290,4.5,,640,$$ - $$$,$16 - $30,48.8738029,2.3424267
Holybelly,"5 rue Lucien Sampaix, 75010 Paris France",299,4.5,"Founded in 2013, Holybelly strives to provide the best food, coffee and service in a relaxed environment. After being trained in Melbourne, we wanted to offer the same kind of experience in Paris, a café setting serving proper restaurant food, the finest mix! At Holybelly ""it's good because we care.""",1297,$$ - $$$,$10 - $30,48.8709889,2.3598067
Pizza Caratello,"8 rue Audran, 75018 Paris France",287,4.5,"Real Italian pizzeria, with large choice of pizzas, delicious Pasta, apetizers, and home Made deserts.",662,$$ - $$$,$17 - $20,48.8851712,2.3360203
Lakshmi Bhavan,"57 rue Rodier, 75009 Paris France",297,4.5,,284,$,,48.8810711,2.3441118
Le Maharaja,"48 rue la Condamine, 75017 Paris France",305,4.5,Dear sir/madame please note That Our restaurant Is adapted for européens(it is not suitable for indian) thanking you for you understanding,587,$$ - $$$,$20 - $50,48.8861862,2.3220742
Il Carpaccio,"37 Avenue Hoche, 75008 Paris France",296,4.5,"Our Italian restaurant Il Carpaccio is the only Michelin-star Italian restaurant in Paris. It first opened its doors 30 years ago, and has since established itself as a true institution. Drawing on his heritage, Chef Roberto Rispoli gives a very personal interpretation of traditional family recipes from Italy's many regions, using the best and freshest Italian produce. Originally from Pompei near Naples, Roberto has revived Il Carpaccio under the direction of Executive Chef Laurent Andre, with superstar pastry chef Pierre Herme bringing classic Italian desserts to a whole new level, and Head Sommelier Manuel Peyrondet (Meilleur Ouvrier de France and Best Sommelier in France) sharing his passion for Italian wines. The intimate dining room draws on a Sicilian baroque style with an extravagant shell decor on the walls, opening onto a lovely glass conservatory drenched in light. Two contemporary artists have created unique works of art that add to the Italian theme.",912,$$$$,$65 - $125,48.8757736,2.3002863
Oxymore,"60 rue Saint Maur, 75011 Paris France",309,4.5,,399,$$ - $$$,,48.8631786,2.3793559
A modo mio,"4 rue de Turenne, 75004 Paris France",266,4.5,,313,$$ - $$$,$13 - $35,48.8549472,2.3633131
Chez Marcel,"7 rue Stanislas, 75006 Paris France",251,4.5,,938,$$ - $$$,$25 - $60,48.8437934,2.328337
La Becane A Gaston,"24 rue Lucien Sampaix, 75010 Paris France",278,4.5,,355,$$ - $$$,$20 - $60,48.8725107,2.3611714
Lorette,"Rue Saint Lazare, 75009 Paris France",248,4.5,"On the menu, no fake but essential dishes, authentic and tasty French cuisine. Old-fashioned mayo eggs, string salmon with brioche bread or crispy chicken salad, followed by sausage puree, steak or fillet of bar accompanied by chorizo ​​black rice. And finally be tempted by the profiteroles sprinkled with hot chocolate instead or the already famous French toast.",220,$$ - $$$,$14 - $40,48.876193,2.331427
Eataly Paris Marais,"37 Rue Sainte-Croix De La Bretonnerie, 75004 Paris France",307,4,,2981,$$ - $$$,$10 - $40,48.8582103,2.3543485
Invictus,"5 rue Sainte Beuve, 75006 Paris France",301,4.5,"Welcome to Paris, little french restaurant, near by le Jardin du Luxembourg and Montparnasse area, you will find a traditional french cuisine with some influence from my different visits overseas. Fresh product, veggies, fishes, meats and a lot of different flavours. We are opened every night from 7PM to 10 PM. Hope to see you you soon and be a part of your lovely trip in Paris, A bientôt!!!",902,$$ - $$$,$25 - $70,48.8441013,2.3297404
La Vie d'Ange,"41 boulevard Saint Jacques Montparnasse, 75014 Paris France",263,4.5,"We propose French traditional ""bistronomic"" cuisine with fresh products only, and propose an exceptional choice of french wines (bottles or glasses) that we personally selected. We are located between the Catacombes and the Marriot Rive Gauche Hotel. Open for Lunch and Dinner from Monday to Friday and for Dinner only on Saturday. Closed Sunday. Thierry and Aida will welcome you in their little for a delicious gastronomic and oenological experience....At a very reasonable price. You can also ask for a fixed-price menu for groups (+10 people), or privatize the restaurant for special events (from 25 to 40 people) Contact us by mail on our web-site.",678,$$ - $$$,$28 - $66,48.8340611,2.33353
Sapori di Parma,"56 avenue de la Bourdonnais, 75007 Paris France",302,4.5,,506,$,,48.8562123,2.3021361
Caracole,"2 rue des Anciens Combattants, 92700 Colombes France",1,4.5,,457,$$ - $$$,$16 - $29,48.9222869,2.2530631
La Ripaille,"22 Place Louis XIII, 94150 Rungis France",1,4.5,,279,$$ - $$$,,48.7511567,2.3451624
Le Poulbot,"3 rue Poulbot Montmartre, 75018 Paris France",313,4.5,,1001,$$ - $$$,$8 - $35,48.8867262,2.3396387
Kitchen Terre,"26 boulevard Saint-Germain, 75005 Paris France",282,4.5,,278,$$ - $$$,$26 - $57,48.8496404,2.3527459
Neige d'ete,"12 rue de l Amiral Roussin, 75015 Paris France",293,4.5,,326,$$$$,,48.8454117,2.2990085
Le Baron Rouge,"1 rue Theophile Roussel, 75012 Paris France",310,4.5,Credit Card accepted over 20 euros No reservations Oysters on Saturdays and Sundays from October to April,537,$$ - $$$,$4 - $20,48.8494401,2.377381
Kitchen Galerie Bis,"25 rue des Grands Augustins, 75006 Paris France",270,4.5,,735,$$$$,$29 - $66,48.853803,2.3403816
Joe Burger,"49 rue Descartes, 75005 Paris France",236,4.5,,778,$,,48.8451135,2.3492041
Le Gourmet,"150 boulevard du General Giraud, 94100 Saint-Maur-des-Fosses France",2,4.5,,730,$$$$,,48.7897152,2.4865304
Lao Chaleune,"29 Rue du Chateau des Rentiers, 75013 Paris France",323,4.5,,358,$$ - $$$,,48.8242459,2.3702637
Au Bourguignon du Marais,"52 rue Francois Miron 75004 PARIS, 75004 Paris France",373,4.5,"Close Saint Louis Island, the Restaurant Au Bourguignon du Marais specialized in recipes from Burgundy, including its mus having Bœuf Bourguignon, as well as its 100% Burgundy wines, available by the glass or by the bottle.",1370,$$ - $$$,,48.8554387,2.3576144
Le Kigawa,"186 rue du Chateau, 75014 Paris France",327,4.5,,325,$$$$,$58 - $75,48.8331436,2.3242782
LE SAIN SERT,"3 rue Roque de Fillol, 92800 Puteaux, La Defense France",1,4.5,,725,$$ - $$$,$18 - $45,48.88294875,2.240605292
Le Petit Champerret,"30 rue Vernier, 75017 Paris France",345,4.5,,264,$$$$,,48.88457,2.2910077
Meating Corner,"8 Rue des Lombards, 75004 Paris France",319,4.5,,390,$,$14 - $30,48.8591622,2.3499084
Mon Bistrot,"33 rue Marcel Dassault, 92100 Boulogne-Billancourt France",2,4.5,"Sortez à la porte de Saint-Cloud, arrivez à Boulogne, « Mon Bistrot » vous attend pour vous proposer une cuisine de saison généreuse et savoureuse. Dès votre arrivée, un accueil convivial donne le ton dans un décor Bistrot « Chic » aux couleurs douces et harmonieuses. Un joli bar se présente à vous sur lequel il vous est possible de déguster une planche de Pata Negra accompagnée d’un vin de propriétaire ou d’un grand cru. En plus de la salle principale, le restaurant dispose d’un coin Bibliothèque plus intime pouvant vous accueillir pour vos diner d’affaire ou en famille. Côté cuisine, notre Chef Loïc et son équipe, vous propose quelques recettes soigneusement élaborées à l’exemple d’un Risotto au Poulpe déglacé au jus de Coque et son Crumble à l’encre de Seiche, des pâtes au Homard ou encore l’échine de Cochon fermier et son gratin Dauphinois qui sauront vous conquérir. Sans oublier notre fameux filet de Bœuf d’Argentine cuit à l’unilatérale, un incontournable ! En dessert, l’ini",597,$$ - $$$,$25 - $60,48.83571,2.253757
L'Insoumise,"15 rue Auguste Chabrieres, 75015 Paris France",304,4.5,"Restaurant traditionnel servant une cuisine Française. A deux pas de la Porte de Versailles et du Dôme de Paris, nous vous accueillons à l'occasion de salons, conventions ou spectacles. Réservez sur notre site internet et obtenez votre table, chez nous et ""chez vous"". Parfois ouvert le Dimanche. Traditional french restaurant near the ""Parc Expo Porte de Versailles"". Come and have diner during an exhibition or convention. Book your table on our website, get your table, and ""feel at home"". Open on Sunday exceptionally for groups.",299,$$ - $$$,$15 - $25,48.8350076,2.2892613
Maison Pinsa,"8 Rue Du Faubourg Poissonniere, 75010 Paris France",294,5,,86,$$ - $$$,,48.8713133,2.3479792
Chez Renata,"3 B rue Edouard Cornefert, 93600 Aulnay-sous-Bois France",2,4.5,,193,$,,48.9312877,2.4943994
Mavrommatis,"42 rue Daubenton, 75005 Paris France",340,4.5,"Rewarded with a Michelin star in 2018, the Mavrommatis restaurant has been the benchmark for Greek gastronomy in Paris since 1993. The establishment combines, through skilfully studied aesthetic dishes, ""the best products from Greek terroirs with French cooking techniques. Acclaimed by many personalities, by the gourmets of the Censier Daubenton district and by all of Paris, Mavrommatis offers an enchanting Mediterranean break in the heart of the capital. For your evenings or dinners a private lounge is located on the first floor.",486,$$$$,$37 - $147,48.8405466,2.3512744
Chez Delphine,"48 Rue Saint-Georges, 75009 Paris France",326,4.5,,484,$$ - $$$,$22 - $45,48.877242,2.3373114
Aux Cerises,"47 avenue de Suffren, 75007 Paris France",336,4.5,"Breakfast, lunch, Brunch and tea time",399,$$ - $$$,$13 - $29,48.8536599,2.2972412
Le Vieux Bistrot,"54 rue Mouffetard, 75005 Paris France",312,4.5,,786,$$ - $$$,$22 - $35,48.843267,2.3494963
Le Charentonneau,"159 avenue du General Leclerc, 94700 Maisons-Alfort France",1,4.5,,674,$$ - $$$,,48.808494,2.436063
L'Alchimiste,"181 rue de Charenton, 75012 Paris France",318,4.5,Ce restaurant était anciennement un vieux bougnat. Paulo est au commande de l'Alchimiste depuis 15 ans. Il vous offre une cuisine créative et généreuse dans une ambiance bistrot. Prix Abordables et service toujours de bonne humeur au rendez vous!,523,$$ - $$$,$12 - $25,48.8432368,2.385487
La Brasserie Thai,"5 rue Poulbot, 75018 Paris France",320,4.5,"Brasserie Thai traditionnelle a Montmartre. Fermeture : lundi - mardi Service continu samedi, dimanche et jours feries Salle de reception a l'etage",441,$$ - $$$,$15 - $43,48.8868059,2.3398109
Bistrot La-Haut,"70 avenue Franklin Roosevelt, 92150 Suresnes France",1,4.5,,728,$$$$,$32 - $33,48.8753137,2.2196638
Fric-Frac Canal St-Martin,"79 quai de Valmy, 75010 Paris France",331,4.5,,274,$,$10 - $25,48.8724156,2.3640193
Rajpoot,"2 avenue Emile Zola, 94100 Saint-Maur-des-Fosses France",3,4.5,,647,$$ - $$$,,48.804766,2.4847671
Chez Pradel,"168 rue Ordener, 75018 Paris France",334,4.5,,277,$,,48.8939135,2.3350409
Jeannot et Colin,"51 Boulevard Voltaire, 75011 Paris France",333,4.5,,271,$$ - $$$,$15 - $45,48.8623796,2.3727706
Yakigushi,"42 avenue Henri Ginoux, 92120 Montrouge France",3,4.5,The restaurant is closed from July 14th 2018 to August 15th 2018 included.,278,$$ - $$$,,48.8171517,2.3217027
Les Papilles,"30 rue Gay Lussac, 75005 Paris France",317,4.5,,2320,$$ - $$$,$141 ,48.8445693,2.3417345
Buono Sano Bello,"14 rue de la Villette, 75019 Paris France",356,4.5,,345,$,$8 - $18,48.875414,2.3874682
Tour d'Argent,"15 quai de la Tournelle, 75005 Paris France",325,4.5,,2622,$$$$,$85 - $300,48.8498148,2.3550979
Le Touareg,"228 Rue De Charenton, 75012 Paris France",349,4.5,"Idéalement situé au cœur du 12ème arrondissement de paris, notre etablissement vous invite à venir découvrir ses nombreuses spécialités dans un cadre convivial et chaleureux. Le Touareg est un restaurants familiales qui vous fera traversé la Méditerranée, sa décoration et son cadre idyllique vous ferons plongé à ne point douter au sein de ces fameux contes berbères. Notre établissement est très apprécié pour ses différents mets et nôtre expérience de quinze ans est un atout considérable pour vous offrir un service optimal digne de ce nom.",515,$$ - $$$,$20 - $35,48.8398855,2.3883829
Stellar Restaurant - Ephemera,"45, Rue Saint-Sebastien, 75011 Paris France",335,4.5,,255,$$ - $$$,$15 - $25,48.8618352,2.3716737
Le Petit Littre,"16 rue Littre, 75006 Paris France",350,4.5,"Le Petit Littré is a typical Parisian Bistro, where you will find quality cuisine made with 100% fresh products. open from Tuesday to Saturday Lunch from 12:00 to 14:30 Dinner from 19:15 to 22:30 Bar closes at 1:00 am",757,$$ - $$$,,48.8450058,2.3240987
Flottes,"2 rue Cambon, 75001 Paris France",355,4,,2121,$$ - $$$,$25 - $50,48.866297,2.325326
Le Bistro du Perigord,"71 rue Saint Jacques, 75005 Paris France",357,4.5,,595,$$ - $$$,,48.8498914,2.3451545
Guy Savoy,"Monnaie De Paris, 11 Quai De Conti, 75006 Paris France",341,4.5,"Restaurant Guy Savoy, ranked amongst the very best in every gastronomic guide, is situated in Monnaie de Paris, spread across six 18th century salons offering views onto the Seine, the Louvre, the Pont Neuf and the Institut de France. Here architect Jean-Michel Wilmotte envisaged a setting at once restrained and contemporary, where works of art stoke the fires of modernity and where the dining table becomes a veritable theatrical stage, focusing and capturing light. Guy Savoy’s dining room is one of conviviality, warmth and impeccable service, where the cuisine expresses the sensitivity of a chef wholly at ease in this modern era: Artichoke soup with black truffle and layered truffled mushroom brioche; Red mullet ‘swimming in the sea’; Millefeuille ‘à la minute’ with Tahitian vanilla… As Guy Savoy puts it, “Cuisine is the art of instantly transforming produce rich with history into joy.”",945,$$$$,,48.8564015,2.338495633
Racina,"43 rue Descartes, 75005 Paris France",343,4.5,Italian restaurant with Sicilian specialties.,374,$,$6 - $20,48.8453138,2.3491879
Bistrot Paul Chene,"123 rue Lauriston, 75116 Paris France",366,4.5,"The kitchen staff remains under the direction of Philippe Mercier who has been in the position for Established in 1959 by Paul Chene chef cuisinier by training, and located in the heart of the Trocadero district of Paris, the restaurant 'Paul Chene' is recognized as an institute of traditional French cuisine. The high standards set by Paul Chene as a celebration of regional products.",831,$$$$,$18 - $60,48.8657828,2.2858843
Bistrot chez France,"9 rue Amelie, 75007 Paris France",338,4.5,"A deux pas de la Tour Eiffel et des rues commerçantes du 7ème arrondissement, un bistrot comme on les aime à Paris ... dans une ambiance conviviale, Bistrot chez France et son équipe vous proposent une cuisine traditionnelle française, à base de produits frais. Formule midi à 18,50 euros (entrée/plat ou plat/dessert), menu du Bistrot à 33 et 38 euros. Plats du jour et suggestions selon le marché et la saison. Sélection de vins de producteurs, à partir de 6 euros le verre/26 euros la bouteille.",902,$$ - $$$,$19 - $38,48.8590708,2.3075566
Ristorante Italiano 0039,"24 rue des Tournelles Quartier Le Marais, 75004 Paris France",332,4.5,"Restaurant très convivial et familial, nous vous attendons pour passer un excellent moment en Italie.",999,$$ - $$$,$25 - $40,48.8549787,2.3673463
De l'Autre Cote,"7 rue Leon Jouhaux, 75010 Paris France",352,4.5,,361,$$ - $$$,,48.8690583,2.3639094
le goyavier,"4 rue Saint Bernard, 75011 Paris France",376,4.5,"Le Goyavier is a friendly and family restaurant of Reunionese cuisine open since 1987, and located in the 11th district of Paris. Le Goyavier est un restaurant de cuisine réunionnaise, chaleureux et familial depuis 1987 et situé dans le 11ème arrondissement de Paris.",245,$$ - $$$,$22 - $43,48.8506738,2.3815476
L'Apibo,"31 rue Tiquetonne, 75002 Paris France",372,4.5,,490,$$$$,$15 - $60,48.8647204,2.3474424
Ciasa Mia,"19 rue Laplace, 75005 Paris France",330,4.5,"Ciasa Mia est un restaurant gastronomique italien inspiré du Tyrol italien, plus précisément des Dolomites, d'où nous sommes originaires. Ciasa Mia en effet, veut dire ma maison dans notre langue traditionnelle ""Ladina"" parlée dans certaines vallées des Dolomites. Les produits frais et de saison sont préparés et travaillés par Samuel avec passion et personnalité et sont très attentivement choisis. Nos menus changent toutes les saisons pour donner satisfaction à vos papilles avec des nouvelles recettes innovantes et créatives. Nous proposons des menus dégustations surprise en 5 ou 7 temps disponibles midi et soir, ainsi que un menu déjeuner ""Carte blanche"" en 3 temps! C’est dans l’un du plus vieux et beau quartier de Paris près de la place du Panthéon qu’on vous reçoit comme à la maison. La gentillesse et la chaleur d’un ""chez soi"" sont au rendez-vous. La rue calme, le cadre soigné, les poutres et les pierres apparentes, vous feront sentir loin d’une grande ville.",547,$$$$,$45 - $105,48.8474127,2.3470572
Ripaille,"69 rue des Dames, 75017 Paris France",370,4.5,,286,$$ - $$$,$29 - $59,48.8836065,2.3207228
MARDI - Creperie Urbaine,"137 rue Montmartre, 75002 Paris France",342,4.5,"Mardi is the place for crepe lovers ! Create your own savory or sweet crepes by choosing among our 50 salted or sweet topics. Eat here or take away. Mardi proposes vegetarian, halal and gluten free meal.",368,$$ - $$$,$2 - $15,48.869888,2.3426246
Substance,"18 rue de Chaillot, 75116 Paris France",303,4.5,,373,$$$$,$39 - $110,48.8673254,2.2975781
Pedzouille l'Etable,"66 rue du Faubourg Poissonniere, 75010 Paris France",348,4.5,,507,$$ - $$$,,48.8759079,2.3483917
Maison Binder,"43 Rue Halle, 75014 Paris France",237,5,,88,$$ - $$$,$12 - $30,48.8304325,2.3312434
Korus,"73 rue Amelot, 75011 Paris France",337,4.5,,198,$$$$,$36 ,48.8592057,2.3681449
A L'endroit,"9 rue du Tunnel, 75019 Paris France",365,4.5,,512,$$ - $$$,$40 - $60,48.878941,2.385151
Kashmir House,"36 rue de Chabrol, 75010 Paris France",361,4.5,,1119,$$ - $$$,,48.8770367,2.3522533
Sur Mesure par Thierry Marx,"251 Rue Saint-Honore, 75001 Paris France",378,4.5,,1040,$$$$,,48.867118,2.3270818
Les petites bouchees,"4 rue du Roi de Sicile, 75004 Paris France",360,4.5,,600,$$ - $$$,$14 - $20,48.8556193,2.3607419
Anicia,"97 rue du Cherche Midi, 75006 Paris France",382,4.5,,324,$$$$,$29 - $55,48.8467029,2.3212725
Tomy & Co,"22 rue Surcouf, 75007 Paris France",381,4.5,,450,$$$$,,48.860552,2.3094544
Perchiana,"7 rue Mademoiselle, 75015 Paris France",401,4.5,,606,$,,48.8436479,2.294117
Le Faubourg la Defense,"38 boulevard de Pesaro, 92000 Nanterre, La Defense France",2,5,"Restaurant français chic & chaleureux Le Faubourg la Défense vous propose une cuisine française simple et savoureuse faite de produits frais, de qualité",115,$$ - $$$,$14 - $35,48.8916869,2.2276279
SOURIRE GALANDE tapas francaises,"27 rue Galande, 75005 Paris France",346,4.5,Bar à tapas à la française proposant des petits plats à partager dans un décor style loft new-yorkais. L'ambiance conviviale et l'équipe jeune fond de l'établissement un endroit aussi agréable entre amis qu'en famille. Le chef propose une cuisine de saison et se fournit directement auprès de petits producteurs. Le vin est dûment sélectionné auprès de vignerons indépendants.,1007,$$ - $$$,$25 - $40,48.8512077,2.3477277
Pause Bobun,"3 rue Buffon, 75005 Paris France",383,4.5,"This Place is Temporarily Closed. At Pause Bobun, Mom is in charge of the kitchen. She has been cooking for her whole life and it is her recipes and flavors you'll enjoy in your dishes. The cuisine here is 100% authentic. No freezer - The spring rolls, crêpes, sauces, skewers, salads, desserts, everything is made from ingredients daily brought from the market. Our team work hard everyday to give you the best. VEGAN FRIENDLY - We have one vegan starter, two choices of vegan main dishes and one dessert which led us to be listed on VegoResto (L214) and Happy Cow. You can come with a vegan friend being sure she or he will enjoy a proper meal !",311,$,$10 - $22,48.8430308,2.363447
Beccuti Bar,"91 rue de Rivoli, 75001 Paris France",404,4.5,"A warm atmosphere for an enjoyable time in the heart of Paris. Italian coffee culture, free wifi, and a wide selection of Italian specialities. 127 of passion through 4 generations. With the first bar opened in 1890 in the city of Turin, the Beccuti Bar is the first realization of the Italian family in France.",135,$$ - $$$,,48.8606788,2.3411959
Le Berbere,"62 rue Crozatier, 75012 Paris France",363,4.5,,335,$$ - $$$,,48.8495091,2.3797387
Cafe de Paris Friedland,"45 avenue de Friedland, 75008 Paris France",391,4.5,"Depuis 1er janvier 2021, L'établissement fait peau neuve et casse les codes de la brasserie traditionnelle tout en gardant les fondamentaux. Une cuisine saine et de saisons, des prix raisonnables et une équipe passionnée ! Idéalement situé, près des Champs Elysées et vu sur l'Arc de Triomphe, Le Café de Paris vous accueille tous les jours de 8h00 à 00h00 . Le service en continu de midi à 23h00 permets de s'y rendre tout au long de la journée. Le chef vous propose une carte typiquement parisienne avec par exemple un foie gras de canard au pain d'épices , une côte de boeuf gourmande à partager...ou pas. Petit avant goût, sans pour autant tout vous dévoiler, notre nouvelle carte de Cocktails inventé par notre barman, Sacha. Tout les samedis , nous accueillons des musiciens mordus de Jazz. Paris est une fête! Nous avons hâte de vous recevoir et de vous surprendre encore et toujours. Les réservations sont possible en salle et en terrasse.",637,$$ - $$$,,48.8738454,2.2977761
Bien Bien,"30 bis, rue Bergere, 75009 Paris France",379,4.5,"Hey, if you are looking for a quick break in Thailand while you staying in Paris, feel free to come and share a good time with us. We happen to cook tasty and traditional recipes, and as a family business, we also want to have a nice moment serving you. See you ^^",674,$$ - $$$,$22 - $30,48.8726231,2.3440148
Les Petits Crus,"13 rue Saint Sabin, 75011 Paris France",385,4.5,,241,$$ - $$$,,48.8553677,2.3718537
Les Mignardises,"1 rue du Progres, 94350 Villiers-sur-Marne France",1,4.5,,303,$$$$,,48.8202049,2.53609095
New Jawad Richelieu,"95 Rue de Richelieu, 75002 Paris France",386,4.5,,638,$$ - $$$,,48.8711495,2.339569
Loufoque,"57 rue Galande, 75005 Paris France",686,5,"Loufoque, c'est un restaurant et bar à jeux de société au cœur de Paris! Chez nous, vous pouvez jouer à 900 jeux expliquer par nos animateurs, boire ce qui vous plaît parmi une large carte de bières, cocktails, vins et softs, et vous régaler avec des plats, desserts et tapas faits maison.",89,$$ - $$$,$12 - $25,48.8516417,2.346921
Papelli,"74 rue du Faubourg Saint Denis, 75010 Paris France",422,4.5,Papelli is an italian trattoria Everyday fresh pizzas and salads A large propositions of drinks Cool place with selected products,839,$$ - $$$,$12 - $18,48.8731091,2.3547072
Les Bougresses,"6 rue de Jarente, 75004 Paris France",405,4.5,,934,$$ - $$$,,48.8557023,2.3630589
My Noodles,"129 boulevard du Montparnasse, 75006 Paris France",407,4.5,,511,$,,48.8414925,2.3317306
La cantine Champ Libre,"9 Rue Taylor, 75010 Paris France",221,5,"La cantine Champ Libre Restaurant au 9 rue Taylor, Paris 10 Cantine et future ferme | Dej - Dîner - Brunch | Ouvert 7/7 Avec ou sans réservation Dej : lun - ven, 12:00 - 15:00, formules déjeuner, sur place ou à emporter ✨ Dîner : mer - sam, 19:30 - 23:00, à la carte ☕ Brunch : sam - dim, 11:30 - 15:00, formule brunch Cuisine de saison faite à partir de produits locaux, bio et fermiers Le menu du midi change tous les jours, et le menu du soir toutes les semaines, au fil des saisons et de l'inspiration de l'équipe de cuisine. À découvrir sur place. Entrées et plats végétariens savoureux",101,$$ - $$$,,48.8699755,2.3592398
Les Poulettes Batignolles,"10 rue de Cheroy, 75017 Paris France",408,4.5,"Situé à Paris 17è, les Poulettes Batignolles est un charmant restaurant proposant une cuisine traditionnelle française aux accents catalans fondé en 2014 par Ludovic Dubois et Judith Cercos. Intransigeant sur la qualité, ne travaillant qu’avec les meilleurs produits, le chef Ludovic ne collabore qu’avec les fournisseurs les plus qualitatifs et ne fait son marché qu’auprès des commerçants du quartier qui travaillent avec des petits producteurs locaux (rue de Lévis, marché des Batignolles,...). Judith, ancienne sommelière du prestigieux Mandarin de Barcelone, a composé une cave qui compte pas loin de 150 références de vins biodynamiques et naturels. Aux Poulettes Batignolles, la carte est révisée en fonction des produits de saison et le fait maison est à l’honneur.",516,$$ - $$$,,48.8827462,2.3184104
Sur la Route de Plouescat,"4 rue Lamarck, 75018 Paris France",419,4.5,,287,$,$10 - $26,48.88647745,2.344338118
Tesoro d'Italia,"41 rue de Paradis, 75010 Paris France",394,4.5,"une idée très simple : le goût avant tout ! En somme, nous voulions redécouvrir et partager la généreuse cuisine transalpine dans le respect des traditions.",630,$$ - $$$,$10 - $35,48.8754103,2.3500663
Le Jourdain,"101, Rue des Couronnes, 75020 Paris France",387,4.5,,405,$$ - $$$,$20 - $40,48.8721886,2.389259
Le Jeroboam,"72 rue Didot, 75014 Paris France",402,4.5,,760,$$ - $$$,$10 - $30,48.8290478,2.3169338
Le Coupe Gorge,"2 rue de la Coutellerie, 75004 Paris France",420,4.5,"Founded in 1895 and located just a few steps from Hotel de Ville and Le Marais, Le Coupe Gorge offers a traditional warm and friendly atmosphere in an old Parisian establishment. Julien Stefanizzi, the chef and recent master of this restaurant made his debut in Paris at ""Petit Colombier"", and ""Apicius"", with the Chef Jean-Pierre Vigato (twice starred with his restaurant). Passionnate of traditional French cooking, Chef Julien Stefanizzi strongly believes and supports homemade food concept prepared with fresh ingredients. You can also enjoy his special homemade nougat. Le Coupe Gorge is also a catering service, the privatization of its floor for 45 people and exhibit location.",554,$$ - $$$,$18 - $26,48.8574938,2.3505431
Il etait une Oie dans le Sud Ouest,"8 rue Gustave Flaubert, 75017 Paris France",428,4.5,LIVRAISON VIA UBER EATS & DELIVEROO Du mardi au samedi à partir de 17:00 SUR PLACE : Vente à emporter & Click & Collect,520,$$ - $$$,,48.8814816,2.2989781
Le Bistrot de Charenton,"123 rue de Paris, 94220 Charenton-le-Pont France",2,4.5,,530,$$ - $$$,$20 - $40,48.8246134,2.4085703
Le P'tit Troquet,"28 rue de l Exposition, 75007 Paris France",369,4.5,,1107,$$ - $$$,$18 - $45,48.857146,2.3032161
Le Cornichon,"34 rue Gassendi, 75014 Paris France",354,4.5,,421,$$ - $$$,$35 - $55,48.8341785,2.3261353
L'Italien,"40 rue de Ponthieu, 75008 Paris France",364,4.5,"METRO ST-PHILIPPE DU ROULE - In the district Paris 8 - Champs-Elysées, Italian is a godsend. The reason: an excellent price vs quality and a comfortable space. ITALIAN AFFORDABLE - The food is copious (antipasto, pizza, veal cutlet Milanese, penne arrabiata with ...) and as it is a market fresh cooked products, we never tire. Current quality products direct from Italy. Welcom to L'Italien",605,$$ - $$$,$14 - $50,48.8713124,2.307777
Au Petit Tonneau,"20 rue Surcouf, 75007 Paris France",339,4.5,"""Au Petit Tonneau"" Every day, French cuisine lovers rush to this lovely and welcoming spot located in the heart of Paris' 7th arrondissement, in the famous Surcouf Street. They come here, only a few steps away from the Invalides and the Eiffel Tower, to enjoy authentic, generous and traditional meals. Au Petit Tonneau is an authentic Parisian bistro that has existed over thirty years ago, offering a friendly atmosphere, accentuated by vichy tablecloths and ancient tiles embellished with fleur-de-lis, where one word prevails: ""enjoy"" ! It is also in this restaurant where Comissaire Maigret, under the pen name of Georges Simenon, habitually took a few puffs from his pipe as he was seated at his ""table of the commisaire"" to relish in his favorite dish: a veal stew, which to this day is still highly anticipated by customers. ""menu"" The cuisine of Au Petit Tonneau revisits the traditional and savory entrees that build onto the international reputation of the French gastronomy. Gourmet meals altering with the changing seasons can also boast to a great pricing for its quality, such as the veal with gravy accompanied by a simmering gratin dauphinois (cooked in cream), barely out of the oven.",467,$$ - $$$,$35 - $200,48.860648,2.3094395
La Galettiere,"39 avenue Carnot, 91300 Massy France",1,4.5,,214,$,$5 - $15,48.7246182,2.2606482
Gelateria Verdi Pizza Parma,"1 rue du General Gallieni, 93110 Rosny-sous-Bois France",1,4.5,,225,$$ - $$$,,48.8741106,2.483070557
Kemia paris,"1 rue Bergere, 75009 Paris France",415,5,Kémia est un restaurant Français d'influence méditerranéenne. Une cuisine de partage avec des produits frais et de saison. Le midi une formule déjeuner à partir 25€. Le soir des assiettes à partager de 9 à 20€ sur ardoise qui évolue en fonction de nos producteurs et de nos envies.,76,$$ - $$$,$25 - $45,48.8720025,2.3476511
La Maison du Jardin,"27 rue de Vaugirard, 75006 Paris France",424,4.5,,660,$$ - $$$,,48.8482975,2.3314349
L'Iliade,"59 rue de Belleville, 75019 Paris France",453,4.5,,209,$$ - $$$,,48.8733372,2.3818956
Palais du Bonheur,"131 rue Michel Ange, 75016 Paris France",431,4.5,Traditional Chinese restaurant with Home Made dim sum and the famous Beijing duck in 4 styles . All our food are prepared by our Singapore experienced cook Mr Shee and his team . He worked for about 40 years in chinese cooking . We have a private room of 25 seats for special businesses and family events . We can do also special orders as well .,383,$$ - $$$,$15 - $35,48.8391189,2.2577582
A Cote,"16 Rue La Fayette, 75009 Paris France",485,4.5,,414,$$ - $$$,$70 - $180,48.8734681,2.3350963
Kuccini,"165 Rue St Denis, 75002 Paris France",439,4.5,"KUCCINI is a Semi gastro Parisian restaurant situated in Montorgueil, the pedestrian old village downtown the French capital for authentic Parisians. Kuccini's creative, experienced (and handsome!) Executive Chef, impulsed by Italian and International inspirations, is also highly skilled in French Technic cuisine. As they wish, our clients can discover his cuisine by ordering several half-sized plates (Cicchetti) or one regular-sized plate. Cicchetti, an original speciality of Venice, are the internationally trending way of ordering food, for its incomparable taste experience and conviviality",535,$$ - $$$,$9 - $29,48.8652607,2.3503213
